[{"id":282,"name":"戸水船のひろば公園（指定避難場所）","name_kana":"トミズフネノヒロバコウエン（シテイヒナンバショ）","address":"金沢市戸水1-400","lat":"36.603182","lon":"136.620553","url":"","tel":""},{"id":283,"name":"直江北公園（指定避難場所）","name_kana":"ナオエキタコウエン（シテイヒナンバショ）","address":"金沢市直江北1-176","lat":"36.615422","lon":"136.633795","url":"","tel":""},{"id":284,"name":"戸水公園（指定避難場所）","name_kana":"トミズコウエン（シテイヒナンバショ）","address":"金沢市湊4-62","lat":"36.608193","lon":"136.62383","url":"","tel":""},{"id":285,"name":"鞍月中央公園（指定避難場所）","name_kana":"クラツキチュウオウコウエン（シテイヒナンバショ）","address":"金沢市直江西1-201","lat":"36.610748","lon":"136.634678","url":"","tel":""},{"id":286,"name":"鞍月公民館（指定避難場所）","name_kana":"クラツキコウミンカン（シテイヒナンバショ）","address":"金沢市直江南1-1","lat":"36.602945","lon":"136.632811","url":"","tel":"076-237-6446"},{"id":287,"name":"港中学校（指定避難場所）","name_kana":"ミナトチュウガッコウ（シテイヒナンバショ）","address":"金沢市近岡町217","lat":"36.60993","lon":"136.62809","url":"","tel":"076-238-5663"},{"id":288,"name":"鞍月小学校（指定避難場所）","name_kana":"クラツキショウガッコウ（シテイヒナンバショ）","address":"金沢市南新保町リ27-1","lat":"36.601739","lon":"136.632682","url":"","tel":"076-237-6647"},{"id":289,"name":"北間町公園（指定避難場所）","name_kana":"キタママチコウエン（シテイヒナンバショ）","address":"金沢市北間町ホ161","lat":"36.622473","lon":"136.634544","url":"","tel":""},{"id":290,"name":"三口町第１児童公園（指定避難場所）","name_kana":"ミツクチマチダイ１ジドウコウエン（シテイヒナンバショ）","address":"金沢市三口町火237","lat":"36.608029","lon":"136.639865","url":"","tel":""},{"id":291,"name":"湊運動公園（指定避難場所）","name_kana":"ミナトウンドウコウエン（シテイヒナンバショ）","address":"金沢市湊2-86","lat":"36.633532","lon":"136.646544","url":"","tel":""},{"id":292,"name":"北間町西公園（指定避難場所）","name_kana":"キタママチニシコウエン（シテイヒナンバショ）","address":"金沢市北間町ハ93-1","lat":"36.621146","lon":"136.637971","url":"","tel":""},{"id":293,"name":"湊２丁目釣公園（指定避難場所）","name_kana":"ミナト２チョウメツリコウエン（シテイヒナンバショ）","address":"金沢市湊2-34-1","lat":"36.635104","lon":"136.646919","url":"","tel":""},{"id":294,"name":"弓取町児童公園（指定避難場所）","name_kana":"ユミトリマチジドウコウエン（シテイヒナンバショ）","address":"金沢市弓取町172","lat":"36.611265","lon":"136.640257","url":"","tel":""},{"id":295,"name":"浅野川市民体育館（指定避難場所）","name_kana":"アサノガワシミンタイイクカン（シテイヒナンバショ）","address":"金沢市大河端西1-96","lat":"36.614813","lon":"136.639994","url":"","tel":"076-238-0277"},{"id":296,"name":"浅野川公民館（指定避難場所）","name_kana":"アサノガワコウミンカン（シテイヒナンバショ）","address":"金沢市大河端西1-96","lat":"36.615368","lon":"136.639554","url":"","tel":"076-238-2100"},{"id":297,"name":"浅野川小学校（指定避難場所）","name_kana":"アサノガワショウガッコウ（シテイヒナンバショ）","address":"金沢市須崎町チ42","lat":"36.621056","lon":"136.641726","url":"","tel":"076-238-2034"},{"id":298,"name":"諸江町下丁ふれあい公園（指定避難場所）","name_kana":"モロエマチシモチョウフレアイコウエン（シテイヒナンバショ）","address":"金沢市諸江町下丁263-1","lat":"36.60046","lon":"136.646879","url":"","tel":""},{"id":299,"name":"北安江２丁目公園（指定避難場所）","name_kana":"キタヤスエ２チョウメコウエン（シテイヒナンバショ）","address":"金沢市北安江2-1408","lat":"36.586254","lon":"136.649441","url":"","tel":""},{"id":300,"name":"割出町公園（指定避難場所）","name_kana":"ワリダシマチコウエン（シテイヒナンバショ）","address":"金沢市割出町418","lat":"36.6024637","lon":"136.6399696","url":"","tel":""},{"id":301,"name":"駅西第２児童公園（指定避難場所）","name_kana":"エキニシダイ２ジドウコウエン（シテイヒナンバショ）","address":"金沢市北安江3-1201","lat":"36.585538","lon":"136.646734","url":"","tel":""},{"id":302,"name":"問屋町緑地（指定避難場所）","name_kana":"トイヤマチリョクチ（シテイヒナンバショ）","address":"金沢市問屋町1-61","lat":"36.606011","lon":"136.638272","url":"","tel":""},{"id":303,"name":"問屋児童公園（指定避難場所）","name_kana":"トイヤジドウコウエン（シテイヒナンバショ）","address":"金沢市問屋町2-117-1","lat":"36.60776","lon":"136.639283","url":"","tel":""},{"id":304,"name":"諸江児童公園（指定避難場所）","name_kana":"モロエジドウコウエン（シテイヒナンバショ）","address":"金沢市諸江町2815","lat":"36.593033","lon":"136.642032","url":"","tel":""},{"id":305,"name":"諸江公民館（指定避難場所）","name_kana":"モロエコウミンカン（シテイヒナンバショ）","address":"金沢市諸江町29-1","lat":"36.590675","lon":"136.641501","url":"","tel":"076-263-1630"},{"id":306,"name":"浅野川中学校（指定避難場所）","name_kana":"アサノガワチュウガッコウ（シテイヒナンバショ）","address":"金沢市諸江町下丁388","lat":"36.602799","lon":"136.648818","url":"","tel":"076-237-7352"},{"id":307,"name":"諸江町小学校（指定避難場所）","name_kana":"モロエマチショウガッコウ（シテイヒナンバショ）","address":"金沢市北安江2-25-1","lat":"36.589094","lon":"136.64766","url":"","tel":"076-231-7389"},{"id":308,"name":"御所さくら公園（指定避難場所）","name_kana":"ゴショサクラコウエン（シテイヒナンバショ）","address":"金沢市御所町1-407","lat":"36.579738","lon":"136.696883","url":"","tel":""},{"id":309,"name":"御所ひがし公園（指定避難場所）","name_kana":"ゴショヒガシコウエン（シテイヒナンバショ）","address":"金沢市御所町2-172","lat":"36.581108","lon":"136.699941","url":"","tel":""},{"id":310,"name":"御所にし公園（指定避難場所）","name_kana":"ゴショニシコウエン（シテイヒナンバショ）","address":"金沢市御所町2-189","lat":"36.581918","lon":"136.697334","url":"","tel":""},{"id":311,"name":"御所かつら公園（指定避難場所）","name_kana":"ゴショカツラコウエン（シテイヒナンバショ）","address":"金沢市御所町1-42","lat":"36.580781","lon":"136.692308","url":"","tel":""},{"id":312,"name":"山王町第４児童公園（指定避難場所）","name_kana":"サンノウマチダイ４ジドウコウエン（シテイヒナンバショ）","address":"金沢市山王町1-394","lat":"36.573406","lon":"136.704324","url":"","tel":""},{"id":313,"name":"山王町第２児童公園（指定避難場所）","name_kana":"サンノウマチダイ２ジドウコウエン（シテイヒナンバショ）","address":"金沢市山王町2-168","lat":"36.575947","lon":"136.696798","url":"","tel":""},{"id":314,"name":"千寿閣（指定避難場所）","name_kana":"センジュカク（シテイヒナンバショ）","address":"金沢市東長江町辺2-1","lat":"36.567611","lon":"136.689245","url":"","tel":"076-222-0008"},{"id":315,"name":"夕日寺公民館（指定避難場所）","name_kana":"ユウヒデラコウミンカン（シテイヒナンバショ）","address":"金沢市夕日寺町ロ35","lat":"36.572631","lon":"136.705604","url":"","tel":"076-251-0027"},{"id":316,"name":"夕日寺小学校（指定避難場所）","name_kana":"ユウヒデラショウガッコウ（シテイヒナンバショ）","address":"金沢市東長江町に17","lat":"36.577554","lon":"136.692377","url":"","tel":"076-252-4471"},{"id":317,"name":"法光寺運動広場（指定避難場所）","name_kana":"ホウコウジウンドウヒロバ（シテイヒナンバショ）","address":"金沢市法光寺町ト11-2","lat":"36.601972","lon":"136.684899","url":"","tel":""},{"id":318,"name":"福久南ほたる公園（指定避難場所）","name_kana":"フクヒサミナミホタルコウエン（シテイヒナンバショ）","address":"金沢市福久町ヘ47-1","lat":"36.611308","lon":"136.67909","url":"","tel":""},{"id":319,"name":"福久中央公園（指定避難場所）","name_kana":"フクヒサチュウオウコウエン（シテイヒナンバショ）","address":"金沢市福久1-78","lat":"36.617294","lon":"136.679416","url":"","tel":""},{"id":320,"name":"福久かねと公園（指定避難場所）","name_kana":"フクヒサカネトコウエン（シテイヒナンバショ）","address":"金沢市福久2-131","lat":"36.619418","lon":"136.681944","url":"","tel":""},{"id":321,"name":"横枕はすの里公園（指定避難場所）","name_kana":"ヨコマクラハスノサトコウエン（シテイヒナンバショ）","address":"金沢市横枕町ハ80-1","lat":"36.606725","lon":"136.677289","url":"","tel":""},{"id":322,"name":"福久わんぱく公園（指定避難場所）","name_kana":"フクヒサワンパクコウエン（シテイヒナンバショ）","address":"金沢市福久町ヲ121","lat":"36.614292","lon":"136.678494","url":"","tel":""},{"id":323,"name":"荒屋八幡公園（指定避難場所）","name_kana":"アラヤヤワタコウエン（シテイヒナンバショ）","address":"金沢市荒屋1-96","lat":"36.616365","lon":"136.685436","url":"","tel":""},{"id":324,"name":"法光寺ふれあい公園（指定避難場所）","name_kana":"ホウコウジフレアイコウエン（シテイヒナンバショ）","address":"金沢市法光寺町124-1","lat":"36.604661","lon":"136.681986","url":"","tel":""},{"id":325,"name":"疋田中央公園（指定避難場所）","name_kana":"ヒキダチュウオウコウエン（シテイヒナンバショ）","address":"金沢市疋田1-187","lat":"36.601998","lon":"136.673012","url":"","tel":""},{"id":326,"name":"東インター公園（指定避難場所）","name_kana":"ヒガシインターコウエン（シテイヒナンバショ）","address":"金沢市疋田3-65","lat":"36.604676","lon":"136.672786","url":"","tel":""},{"id":327,"name":"千坂公民館（指定避難場所）","name_kana":"チサカコウミンカン（シテイヒナンバショ）","address":"金沢市千木1-119","lat":"36.605795","lon":"136.674127","url":"","tel":"076-257-0670"},{"id":328,"name":"千坂小学校（指定避難場所）","name_kana":"チサカショウガッコウ（シテイヒナンバショ）","address":"金沢市千木1-125","lat":"36.605736","lon":"136.674977","url":"","tel":"076-258-1270"},{"id":329,"name":"城北中央公園（指定避難場所）","name_kana":"ジョウホクチュウオウコウエン（シテイヒナンバショ）","address":"金沢市小坂町西8-6","lat":"36.589775","lon":"136.673806","url":"","tel":""},{"id":330,"name":"小坂白蓮公園（指定避難場所）","name_kana":"コサカビャクレンコウエン（シテイヒナンバショ）","address":"金沢市小坂南589","lat":"36.585799","lon":"136.679382","url":"","tel":""},{"id":331,"name":"神宮寺運動公園（指定避難場所）","name_kana":"ジングウジウンドウコウエン（シテイヒナンバショ）","address":"金沢市神宮寺3-123","lat":"36.586637","lon":"136.666432","url":"","tel":""},{"id":332,"name":"神宮寺桜児童公園（指定避難場所）","name_kana":"ジングウジサクラジドウコウエン（シテイヒナンバショ）","address":"金沢市神宮寺2-326","lat":"36.587526","lon":"136.668018","url":"","tel":""},{"id":333,"name":"神谷内児童公園（指定避難場所）","name_kana":"カミヤチジドウコウエン（シテイヒナンバショ）","address":"金沢市神谷内町チ204-1","lat":"36.598673","lon":"136.689167","url":"","tel":""},{"id":334,"name":"東金沢スポーツ広場（指定避難場所）","name_kana":"ヒガシカナザワスポーツヒロバ（シテイヒナンバショ）","address":"金沢市三池町240-1","lat":"36.593429","lon":"136.670853","url":"","tel":"076-252-0318"},{"id":335,"name":"小坂公民館（指定避難場所）","name_kana":"コサカコウミンカン（シテイヒナンバショ）","address":"金沢市小坂町北312","lat":"36.593443","lon":"136.675689","url":"","tel":"076-252-3067"},{"id":336,"name":"星稜高等学校（指定避難場所）","name_kana":"セイリョウコウトウガッコウ（シテイヒナンバショ）","address":"金沢市小坂町南206","lat":"36.585023","lon":"136.682477","url":"","tel":"076-252-2237"},{"id":337,"name":"北鳴中学校（指定避難場所）","name_kana":"ホクメイチュウガッコウ（シテイヒナンバショ）","address":"金沢市小坂町北95","lat":"36.595253","lon":"136.67622","url":"","tel":"076-251-7540"},{"id":338,"name":"小坂小学校（指定避難場所）","name_kana":"コサカショウガッコウ（シテイヒナンバショ）","address":"金沢市小坂町中142","lat":"36.589766","lon":"136.677293","url":"","tel":"076-252-6386"},{"id":339,"name":"卯辰山公園（指定避難場所）","name_kana":"ウタツヤマコウエン（シテイヒナンバショ）","address":"金沢市卯辰町他","lat":"36.570976","lon":"136.67799","url":"","tel":""},{"id":340,"name":"鳴和台市民公園（指定避難場所）","name_kana":"ナルワダイシミンコウエン（シテイヒナンバショ）","address":"金沢市鳴和台285","lat":"36.577054","lon":"136.679932","url":"","tel":""},{"id":341,"name":"鳴和台桜丘公園（指定避難場所）","name_kana":"ナルワダイサクラガオカコウエン（シテイヒナンバショ）","address":"金沢市鳴和台20","lat":"36.580854","lon":"136.67909","url":"","tel":""},{"id":342,"name":"鳴和憩いの広場（指定避難場所）","name_kana":"ナルワイコイノヒロバ（シテイヒナンバショ）","address":"金沢市鳴和町タ175","lat":"36.580195","lon":"136.678033","url":"","tel":""},{"id":343,"name":"小金町公園（指定避難場所）","name_kana":"コガネマチコウエン（シテイヒナンバショ）","address":"金沢市小金町183","lat":"36.58318541","lon":"136.6712201","url":"","tel":""},{"id":344,"name":"鳴和台市民体育会館（指定避難場所）","name_kana":"ナルワダイシミンタイイクカイカン（シテイヒナンバショ）","address":"金沢市鳴和台285","lat":"36.577076","lon":"136.679031","url":"","tel":"076-251-3963"},{"id":345,"name":"城北市民体育館（指定避難場所）","name_kana":"ジョウホクシミンタイイクカン（シテイヒナンバショ）","address":"金沢市鳴和2-10-44","lat":"36.587548","lon":"136.669906","url":"","tel":"076-251-0853"},{"id":346,"name":"森山公民館（指定避難場所）","name_kana":"モリヤマコウミンカン（シテイヒナンバショ）","address":"金沢市森山2-11-13","lat":"36.579432","lon":"136.669058","url":"","tel":"076-252-6873"},{"id":347,"name":"金沢桜丘高校（指定避難場所）","name_kana":"カナザワザクラオカコウコウ（シテイヒナンバショ）","address":"金沢市大樋町16-1","lat":"36.583607","lon":"136.678677","url":"","tel":"076-252-1225"},{"id":348,"name":"鳴和中学校（指定避難場所）","name_kana":"メイワチュウガッコウ（シテイヒナンバショ）","address":"金沢市鳴和2-10-60","lat":"36.586661","lon":"136.671389","url":"","tel":"076-252-5228"},{"id":349,"name":"森山町小学校（指定避難場所）","name_kana":"モリヤマチョウショウガッコウ（シテイヒナンバショ）","address":"金沢市森山2-13-50","lat":"36.57861","lon":"136.667744","url":"","tel":"076-252-6251"},{"id":350,"name":"元町第３児童公園（指定避難場所）","name_kana":"モトマチダイ３ジドウコウエン（シテイヒナンバショ）","address":"金沢市元町2-137","lat":"36.580636","lon":"136.663238","url":"","tel":""},{"id":351,"name":"浅野本町第３児童公園（指定避難場所）","name_kana":"アサノホンマチダイ３ジドウコウエン（シテイヒナンバショ）","address":"金沢市京町59","lat":"36.584503","lon":"136.657506","url":"","tel":""},{"id":352,"name":"浅野本町第２児童公園（指定避難場所）","name_kana":"アサノホンマチダイ２ジドウコウエン（シテイヒナンバショ）","address":"金沢市浅野本町2-125","lat":"36.584354","lon":"136.660891","url":"","tel":""},{"id":353,"name":"浅野町公民館（指定避難場所）","name_kana":"アサノマチコウミンカン（シテイヒナンバショ）","address":"金沢市乙丸町甲161","lat":"36.586739","lon":"136.665312","url":"","tel":"076-251-1637"},{"id":354,"name":"浅野町小学校（指定避難場所）","name_kana":"アサノマチショウガッコウ（シテイヒナンバショ）","address":"金沢市京町35-1","lat":"36.581731","lon":"136.658818","url":"","tel":"076-252-3573"},{"id":355,"name":"子来町さくら公園（指定避難場所）","name_kana":"コライマチサクラコウエン（シテイヒナンバショ）","address":"金沢市子来町33","lat":"36.572069","lon":"136.671863","url":"","tel":""},{"id":356,"name":"子来町緑地（指定避難場所）","name_kana":"コライマチリョクチ（シテイヒナンバショ）","address":"金沢市子来町2-1","lat":"36.572695","lon":"136.669259","url":"","tel":""},{"id":357,"name":"馬場公民館（指定避難場所）","name_kana":"ババコウミンカン（シテイヒナンバショ）","address":"金沢市東山3-9-35","lat":"36.574477","lon":"136.665101","url":"","tel":"076-252-0705"},{"id":358,"name":"馬場小学校（指定避難場所）","name_kana":"ババショウガッコウ（シテイヒナンバショ）","address":"金沢市東山3-9-30","lat":"36.574681","lon":"136.665491","url":"","tel":"076-251-7826"},{"id":359,"name":"瓢箪町公民館（指定避難場所）","name_kana":"ヒョウタンマチコウミンカン（シテイヒナンバショ）","address":"金沢市彦三町2-10-5","lat":"36.575809","lon":"136.657412","url":"","tel":"076-221-1476"},{"id":360,"name":"明成小学校（指定避難場所）","name_kana":"メイシゲルショウガッコウ（シテイヒナンバショ）","address":"金沢市瓢箪町5-48","lat":"36.576886","lon":"136.657155","url":"","tel":"076-231-7438"},{"id":361,"name":"堀川新町公園（指定避難場所）","name_kana":"ホリカワシンマチコウエン（シテイヒナンバショ）","address":"金沢市堀川新町70-1","lat":"36.581022","lon":"136.650969","url":"","tel":""},{"id":362,"name":"此花町緑地（指定避難場所）","name_kana":"コノハナマチリョクチ（シテイヒナンバショ）","address":"金沢市此花町149-1","lat":"36.577643","lon":"136.652321","url":"","tel":""},{"id":363,"name":"此花町公民館（指定避難場所）","name_kana":"コノハナマチコウミンカン（シテイヒナンバショ）","address":"金沢市此花町2-7","lat":"36.577133","lon":"136.651927","url":"","tel":"076-263-8148"},{"id":364,"name":"神保緑地（指定避難場所）","name_kana":"ジンボリョクチ（シテイヒナンバショ）","address":"金沢市三社町373-11","lat":"36.569944","lon":"136.642185","url":"","tel":""},{"id":365,"name":"穴水町児童公園（指定避難場所）","name_kana":"アナミズマチジドウコウエン（シテイヒナンバショ）","address":"金沢市長土塀1-151","lat":"36.568947","lon":"136.648089","url":"","tel":""},{"id":366,"name":"玉川公園（指定避難場所）","name_kana":"タマガワコウエン（シテイヒナンバショ）","address":"金沢市玉川町2","lat":"36.569235","lon":"136.651007","url":"","tel":""},{"id":367,"name":"玉川苑（指定避難場所）","name_kana":"タマガワエン（シテイヒナンバショ）","address":"金沢市芳斉2-3-28","lat":"36.572044","lon":"136.650009","url":"","tel":"076-260-6686"},{"id":368,"name":"芳斎公民館（指定避難場所）","name_kana":"ホウサイコウミンカン（シテイヒナンバショ）","address":"金沢市芳斉2-3-29","lat":"36.572038","lon":"136.64985","url":"","tel":"076-221-7226"},{"id":369,"name":"大和町防災拠点広場（指定避難場所）","name_kana":"ダイワマチボウサイキョテンヒロバ（シテイヒナンバショ）","address":"金沢市大和町1-1","lat":"36.56986","lon":"136.638958","url":"","tel":""},{"id":370,"name":"中央市民体育館（指定避難場所）","name_kana":"チュウオウシミンタイイクカン（シテイヒナンバショ）","address":"金沢市長町3-3-3","lat":"36.566616","lon":"136.645578","url":"","tel":"076-260-4554"},{"id":371,"name":"長土塀公民館（指定避難場所）","name_kana":"ナガドヘイコウミンカン（シテイヒナンバショ）","address":"金沢市長町3-3-3","lat":"36.567145","lon":"136.645886","url":"","tel":"076-265-7496"},{"id":372,"name":"金沢城公園（指定避難場所）","name_kana":"カナザワジョウコウエン（シテイヒナンバショ）","address":"金沢市丸の内1-1","lat":"36.565847","lon":"136.660637","url":"","tel":"076-234-3800"},{"id":373,"name":"松ヶ枝緑地（指定避難場所）","name_kana":"マツガエリョクチ（シテイヒナンバショ）","address":"金沢市高岡町188-2","lat":"36.56952","lon":"136.652917","url":"","tel":""},{"id":374,"name":"松ヶ枝公民館（指定避難場所）","name_kana":"マツガエコウミンカン（シテイヒナンバショ）","address":"金沢市高岡町7-23","lat":"36.569886","lon":"136.652842","url":"","tel":"076-221-6005"},{"id":375,"name":"長町緑地（指定避難場所）","name_kana":"ナガマチリョクチ（シテイヒナンバショ）","address":"金沢市長町2-52","lat":"36.562781","lon":"136.650017","url":"","tel":""},{"id":376,"name":"中央公民館長町館（指定避難場所）","name_kana":"チュウオウコウミンカンナガマチカン（シテイヒナンバショ）","address":"金沢市長町2-2-43","lat":"36.563203","lon":"136.650074","url":"","tel":"076-220-2460"},{"id":377,"name":"長町公民館（指定避難場所）","name_kana":"ナガマチコウミンカン（シテイヒナンバショ）","address":"金沢市長町2-2-16","lat":"36.563425","lon":"136.649214","url":"","tel":"076-231-5730"},{"id":378,"name":"中央小学校（指定避難場所）","name_kana":"チュウオウショウガッコウ（シテイヒナンバショ）","address":"金沢市玉川町２番１号","lat":"36.570202","lon":"136.650725","url":"","tel":"076-262-8560"},{"id":379,"name":"天神町緑地（指定避難場所）","name_kana":"テンジンマチリョクチ（シテイヒナンバショ）","address":"金沢市天神町2-617-1","lat":"36.560006","lon":"136.674213","url":"","tel":""},{"id":380,"name":"天神しらうめ公園（指定避難場所）","name_kana":"テンジンシラウメコウエン（シテイヒナンバショ）","address":"金沢市天神町1-586","lat":"36.558391","lon":"136.67731","url":"","tel":""},{"id":381,"name":"田井町第１児童公園（指定避難場所）","name_kana":"タイマチダイ１ジドウコウエン（シテイヒナンバショ）","address":"金沢市田井町273","lat":"36.560545","lon":"136.679192","url":"","tel":""},{"id":382,"name":"味噌蔵町公民館（指定避難場所）","name_kana":"ミソグラチョウコウミンカン（シテイヒナンバショ）","address":"金沢市兼六元町7-19","lat":"36.56648","lon":"136.665274","url":"","tel":"076-221-2573"},{"id":383,"name":"兼六中学校（指定避難場所）","name_kana":"ケンロクチュウガッコウ（シテイヒナンバショ）","address":"金沢市田井町12-12","lat":"36.559645","lon":"136.680268","url":"","tel":"076-263-2458"},{"id":384,"name":"長町中学校芳斉分校（指定避難場所）","name_kana":"ナガマチチュウガッコウホウサイブンコウ（シテイヒナンバショ）","address":"金沢市小将町1-15","lat":"36.564487","lon":"136.664343","url":"","tel":"076-222-7575"},{"id":385,"name":"兼六小学校（指定避難場所）","name_kana":"ケンロクショウガッコウ（シテイヒナンバショ）","address":"金沢市兼六元町7-15","lat":"36.565889","lon":"136.666004","url":"","tel":"076-231-7279"},{"id":386,"name":"常盤町緑地（指定避難場所）","name_kana":"トキワマチリョクチ（シテイヒナンバショ）","address":"金沢市東御影町163-1","lat":"36.567749","lon":"136.673666","url":"","tel":""},{"id":387,"name":"睦が丘公園（指定避難場所）","name_kana":"ムツミガオカコウエン（シテイヒナンバショ）","address":"金沢市鈴見台4-174","lat":"36.564035","lon":"136.689738","url":"","tel":""},{"id":388,"name":"郡家山公園（指定避難場所）","name_kana":"グンケヤマコウエン（シテイヒナンバショ）","address":"金沢市鈴見町郡家山1000","lat":"36.55978","lon":"136.685852","url":"","tel":""},{"id":389,"name":"鈴見しょうぶ公園（指定避難場所）","name_kana":"スズミショウブコウエン（シテイヒナンバショ）","address":"金沢市もりの里3-1000","lat":"36.559722","lon":"136.683864","url":"","tel":""},{"id":390,"name":"鈴見児童公園（指定避難場所）","name_kana":"スズミジドウコウエン（シテイヒナンバショ）","address":"金沢市鈴見台2-356","lat":"36.56215","lon":"136.686935","url":"","tel":""},{"id":391,"name":"鈴見台第２児童公園（指定避難場所）","name_kana":"スズミダイダイ２ジドウコウエン（シテイヒナンバショ）","address":"金沢市鈴見台4-43","lat":"36.564061","lon":"136.684213","url":"","tel":""},{"id":392,"name":"材木公民館（指定避難場所）","name_kana":"ザイモクコウミンカン（シテイヒナンバショ）","address":"金沢市材木町13-11","lat":"36.566961","lon":"136.667532","url":"","tel":"076-231-3689"},{"id":393,"name":"菊川町公民館（指定避難場所）","name_kana":"キクガワマチコウミンカン（シテイヒナンバショ）","address":"金沢市菊川2-3-3","lat":"36.551374","lon":"136.659961","url":"","tel":"076-261-1769"},{"id":394,"name":"城南中学校（指定避難場所）","name_kana":"ジョウナンチュウガッコウ（シテイヒナンバショ）","address":"金沢市城南1-24-1","lat":"36.543675","lon":"136.674374","url":"","tel":"076-221-6979"},{"id":395,"name":"いしかわ四高記念公園（指定避難場所）","name_kana":"イシカワシコウキネンコウエン（シテイヒナンバショ）","address":"金沢市広坂2丁目","lat":"36.5631","lon":"136.655513","url":"","tel":"076-262-5464"},{"id":396,"name":"本多の森公園（指定避難場所）","name_kana":"ホンダノモリコウエン（シテイヒナンバショ）","address":"金沢市出羽町","lat":"36.559386","lon":"136.662283","url":"","tel":""},{"id":397,"name":"本多公園（指定避難場所）","name_kana":"ホンダコウエン（シテイヒナンバショ）","address":"金沢市本多町3-51-1","lat":"36.559162","lon":"136.660717","url":"","tel":""},{"id":398,"name":"新竪町公民館（指定避難場所）","name_kana":"シンタテマチコウミンカン（シテイヒナンバショ）","address":"金沢市鱗町62","lat":"36.555979","lon":"136.656861","url":"","tel":"076-231-0258"},{"id":399,"name":"遊学館高等学校（指定避難場所）","name_kana":"ユウガクカンコウトウガッコウ（シテイヒナンバショ）","address":"金沢市本多町2-2-3","lat":"36.55549","lon":"136.660706","url":"","tel":"076-262-8484"},{"id":400,"name":"県立工業高等学校（指定避難場所）","name_kana":"ケンリツコウギョウコウトウガッコウ（シテイヒナンバショ）","address":"金沢市本多町2-3-6","lat":"36.556175","lon":"136.662596","url":"","tel":"076-261-7156"},{"id":401,"name":"旧新竪町小学校（指定避難場所）","name_kana":"キュウシンタテマチショウガッコウ（シテイヒナンバショ）","address":"金沢市新竪町3-25","lat":"36.555697","lon":"136.657037","url":"","tel":"076-262-2355"},{"id":402,"name":"泉野出町第３児童公園（指定避難場所）","name_kana":"イズミノデマチダイ３ジドウコウエン（シテイヒナンバショ）","address":"金沢市泉野出町4-1533","lat":"36.535774","lon":"136.652192","url":"","tel":""},{"id":403,"name":"平和町第１児童公園（指定避難場所）","name_kana":"ヘイワチョウダイ１ジドウコウエン（シテイヒナンバショ）","address":"金沢市平和町3-419","lat":"36.538946","lon":"136.662184","url":"","tel":""},{"id":404,"name":"長坂台児童公園（指定避難場所）","name_kana":"ナガサカダイジドウコウエン（シテイヒナンバショ）","address":"金沢市長坂台136","lat":"36.532424","lon":"136.652659","url":"","tel":""},{"id":405,"name":"長坂みはらし公園（指定避難場所）","name_kana":"ナガサカミハラシコウエン（シテイヒナンバショ）","address":"金沢市長坂3-1521","lat":"36.535058","lon":"136.656216","url":"","tel":""},{"id":406,"name":"金沢大学人間社会学域学校教育学類附属高等学校（指定避難場所）","name_kana":"カナザワダイガクニンゲンシャカイガクイキガッコウキョウイクガクルイフゾクコウトウガッコウ（シテイヒナンバショ）","address":"金沢市平和町1-1-15","lat":"36.538935","lon":"136.664171","url":"","tel":"076-226-2154"},{"id":407,"name":"金沢大学人間社会学域学校教育学類附属中学校（指定避難場所）","name_kana":"カナザワダイガクニンゲンシャカイガクイキガッコウキョウイクガクルイフゾクチュウガッコウ（シテイヒナンバショ）","address":"金沢市平和町1-1-15","lat":"36.53798","lon":"136.665453","url":"","tel":"076-226-2121"},{"id":408,"name":"金沢大学人間社会学域学校教育学類附属小学校（指定避難場所）","name_kana":"カナザワダイガクニンゲンシャカイガクイキガッコウキョウイクガクルイフゾクショウガッコウ（シテイヒナンバショ）","address":"金沢市平和町1-1-15","lat":"36.536717","lon":"136.665861","url":"","tel":"076-226-2111"},{"id":409,"name":"長坂台小学校（指定避難場所）","name_kana":"ナガサカダイショウガッコウ（シテイヒナンバショ）","address":"金沢市長坂3-14-1","lat":"36.535006","lon":"136.657517","url":"","tel":"076-243-7561"},{"id":410,"name":"泉野出町第２児童公園（指定避難場所）","name_kana":"イズミノデマチダイ２ジドウコウエン（シテイヒナンバショ）","address":"金沢市泉野出町1-2107","lat":"36.539403","lon":"136.656189","url":"","tel":""},{"id":411,"name":"泉野出町第１公園（指定避難場所）","name_kana":"イズミノデマチダイ１コウエン（シテイヒナンバショ）","address":"金沢市泉野出町2-1601","lat":"36.537515","lon":"136.650876","url":"","tel":""},{"id":412,"name":"城南市民体育館（指定避難場所）","name_kana":"ジョウナンシミンタイイクカン（シテイヒナンバショ）","address":"金沢市若草町1-60","lat":"36.54435","lon":"136.656784","url":"","tel":"076-244-1843"},{"id":413,"name":"金沢市総合体育館（指定避難場所）","name_kana":"カナザワシソウゴウタイイクカン（シテイヒナンバショ）","address":"金沢市泉野出町3-8-1","lat":"36.539959","lon":"136.650192","url":"","tel":"076-247-0088"},{"id":414,"name":"金沢二水高等学校（指定避難場所）","name_kana":"カナザワニスイコウトウガッコウ（シテイヒナンバショ）","address":"金沢市緑が丘20-15","lat":"36.541333","lon":"136.658383","url":"","tel":"076-241-3167"},{"id":415,"name":"金沢泉丘高等学校（指定避難場所）","name_kana":"カナザワイズミガオカコウトウガッコウ（シテイヒナンバショ）","address":"金沢市泉野出町3-10-10","lat":"36.538192","lon":"136.648872","url":"","tel":"076-241-6117"},{"id":416,"name":"泉野小学校（指定避難場所）","name_kana":"イズミノショウガッコウ（シテイヒナンバショ）","address":"金沢市緑が丘4-64","lat":"36.542372","lon":"136.654113","url":"","tel":"076-241-0615"},{"id":417,"name":"西大桑町児童公園（指定避難場所）","name_kana":"ニシオオクワマチジドウコウエン（シテイヒナンバショ）","address":"金沢市西大桑町715","lat":"36.540234","lon":"136.670952","url":"","tel":""},{"id":418,"name":"平和町公園（指定避難場所）","name_kana":"ヘイワマチコウエン（シテイヒナンバショ）","address":"金沢市平和町2-164","lat":"36.541191","lon":"136.665351","url":"","tel":""},{"id":419,"name":"つつじが丘児童公園（指定避難場所）","name_kana":"ツツジガオカジドウコウエン（シテイヒナンバショ）","address":"金沢市つつじが丘202","lat":"36.527743","lon":"136.678934","url":"","tel":""},{"id":420,"name":"万寿苑（指定避難場所）","name_kana":"マンジュエン（シテイヒナンバショ）","address":"金沢市大桑町ヤ1-4","lat":"36.52532","lon":"136.677185","url":"","tel":"076-244-6745"},{"id":421,"name":"城南公民館（指定避難場所）","name_kana":"ジョウナンコウミンカン（シテイヒナンバショ）","address":"金沢市若草町22-12","lat":"36.54176","lon":"136.661173","url":"","tel":"076-247-7041"},{"id":422,"name":"野田中学校（指定避難場所）","name_kana":"ノダチュウガッコウ（シテイヒナンバショ）","address":"金沢市若草町1-23","lat":"36.544536","lon":"136.657948","url":"","tel":"076-241-5191"},{"id":423,"name":"十一屋小学校（指定避難場所）","name_kana":"ジュウイチヤショウガッコウ（シテイヒナンバショ）","address":"金沢市十一屋町3-45","lat":"36.545327","lon":"136.660911","url":"","tel":"076-241-7348"},{"id":424,"name":"白菊町緑地（指定避難場所）","name_kana":"シラギクチョウリョクチ（シテイヒナンバショ）","address":"金沢市白菊町370-1","lat":"36.56001","lon":"136.646552","url":"","tel":""},{"id":425,"name":"神田町児童公園（指定避難場所）","name_kana":"カンダマチジドウコウエン（シテイヒナンバショ）","address":"金沢市神田1-271","lat":"36.562232","lon":"136.637403","url":"","tel":""},{"id":426,"name":"神泉児童公園（指定避難場所）","name_kana":"シンセンジドウコウエン（シテイヒナンバショ）","address":"金沢市神田2-27","lat":"36.55959","lon":"136.635442","url":"","tel":""},{"id":427,"name":"中村町児童公園（指定避難場所）","name_kana":"ナカムラマチジドウコウエン（シテイヒナンバショ）","address":"金沢市中村町281","lat":"36.561333","lon":"136.644098","url":"","tel":""},{"id":428,"name":"中村町公民館（指定避難場所）","name_kana":"ナカムラマチコウミンカン（シテイヒナンバショ）","address":"金沢市中村町10-35","lat":"36.559456","lon":"136.641941","url":"","tel":"076-247-4447"},{"id":429,"name":"中村町小学校（指定避難場所）","name_kana":"ナカムラマチショウガッコウ（シテイヒナンバショ）","address":"金沢市中村町26-12","lat":"36.560838","lon":"136.641925","url":"","tel":"076-241-0716"},{"id":430,"name":"弥生さくら公園（指定避難場所）","name_kana":"ヤヨイサクラコウエン（シテイヒナンバショ）","address":"金沢市弥生1-753-2","lat":"36.548927","lon":"136.644537","url":"","tel":""},{"id":431,"name":"弥生公民館（指定避難場所）","name_kana":"ヤヨイコウミンカン（シテイヒナンバショ）","address":"金沢市弥生1-29-13","lat":"36.549388","lon":"136.644677","url":"","tel":"076-241-1329"},{"id":432,"name":"泉中学校（指定避難場所）","name_kana":"イズミチュウガッコウ（シテイヒナンバショ）","address":"金沢市弥生1-26-1","lat":"36.54944004","lon":"136.6462487","url":"","tel":"076-242-2411"},{"id":433,"name":"野町公民館（指定避難場所）","name_kana":"ノマチコウミンカン（シテイヒナンバショ）","address":"金沢市野町3-11-1","lat":"36.55263572","lon":"136.6476828","url":"","tel":"076-241-5971"},{"id":434,"name":"金沢中央高等学校（指定避難場所）","name_kana":"カナザワチュウオウコウトウガッコウ（シテイヒナンバショ）","address":"金沢市泉本町6-105","lat":"36.554034","lon":"136.639015","url":"","tel":"076-243-2166"},{"id":435,"name":"泉小学校（指定避難場所）","name_kana":"イズミショウガッコウ（シテイヒナンバショ）","address":"金沢市弥生1-26-1","lat":"36.54916854","lon":"136.6452616","url":"","tel":"076-241-8318"},{"id":436,"name":"長土塀青少年交流センター（指定避難場所）","name_kana":"ナガドヘイセイショウネンコウリュウセンター（シテイヒナンバショ）","address":"金沢市長町3-3-3","lat":"36.56705049","lon":"136.645264","url":"","tel":"076-220-2102"},{"id":437,"name":"いしかわ子ども交流センター（指定避難場所）","name_kana":"イシカワコドモコウリュウセンター（シテイヒナンバショ）","address":"金沢市法島町11-8","lat":"36.545958","lon":"136.663605","url":"","tel":"076-243-6501"},{"id":438,"name":"諸江町上丁ゆうあい公園（指定避難場所）","name_kana":"モロエマチカミチョウユウアイコウエン（シテイヒナンバショ）","address":"金沢市諸江町上丁524-1","lat":"36.594143","lon":"136.648023","url":"","tel":""},{"id":439,"name":"田上さくらぶち公園（指定避難場所）","name_kana":"タガミサクラブチコウエン（シテイヒナンバショ）","address":"金沢市田上さくら1-100","lat":"36.5423676","lon":"136.6899957","url":"","tel":""},{"id":440,"name":"田上郷公園（指定避難場所）","name_kana":"タガミサトコウエン（シテイヒナンバショ）","address":"金沢市田上の里1-195","lat":"36.544234","lon":"136.693928","url":"","tel":""},{"id":441,"name":"田上本町高嶋公園（指定避難場所）","name_kana":"タガミホンマチタカシマコウエン（シテイヒナンバショ）","address":"金沢市田上本町3-52-1","lat":"36.5378","lon":"136.696694","url":"","tel":""},{"id":442,"name":"金沢工業大学天池自然学苑体育館（指定避難場所）","name_kana":"カナザワコウギョウダイガクアマイケシゼンガクエンタイイクカン（シテイヒナンバショ）","address":"金沢市天池町3","lat":"36.50285","lon":"136.695739","url":"","tel":"076-229-1676"},{"id":443,"name":"四十万きずな広場（指定避難場所）","name_kana":"シジマキズナヒロバ（シテイヒナンバショ）","address":"金沢市四十万町北チ54-3","lat":"36.507023","lon":"136.62373","url":"","tel":""},{"id":444,"name":"田上桜の道公園（指定避難場所）","name_kana":"タノウエサクラノミチコウエン（シテイヒナンバショ）","address":"金沢市田上さくら3-111","lat":"36.54753092","lon":"136.688641","url":"","tel":""},{"id":445,"name":"金沢学院大学（指定避難場所）","name_kana":"カナザワガクインダイガク（シテイヒナンバショ）","address":"金沢市末町10","lat":"36.516559","lon":"136.6965","url":"","tel":"076-229-1181"},{"id":446,"name":"北陸学院大学（指定避難場所）","name_kana":"ホクリクガクインダイガク（シテイヒナンバショ）","address":"金沢市三小牛町イ11","lat":"36.518109","lon":"136.67056","url":"","tel":"076-280-3850"},{"id":447,"name":"北陸学院小学校（指定避難場所）","name_kana":"ホクリクガクインショウガッコウ（シテイヒナンバショ）","address":"金沢市三小牛町イ11","lat":"36.517617","lon":"136.671891","url":"","tel":"076-280-3860"},{"id":448,"name":"金沢星稜大学（指定避難場所）","name_kana":"カナザワセイリョウダイガク（シテイヒナンバショ）","address":"金沢市御所町丑10-1","lat":"36.583939","lon":"136.68156","url":"","tel":"076-253-3924"},{"id":449,"name":"北陸大学（指定避難場所）","name_kana":"ホクリクダイガク（シテイヒナンバショ）","address":"金沢市太陽が丘1-1","lat":"36.525431","lon":"136.70751","url":"","tel":"076-229-1161"},{"id":450,"name":"金沢大学角間キャンパス（指定避難場所）","name_kana":"カナザワダイガクカクマキャンパス（シテイヒナンバショ）","address":"金沢市角間町","lat":"36.545988","lon":"136.708733","url":"","tel":"076-264-5111"},{"id":451,"name":"金沢大学鶴間キャンパス（指定避難場所）","name_kana":"カナザワダイガクツルマキャンパス（シテイヒナンバショ）","address":"金沢市小立野5-11-30","lat":"36.55481807","lon":"136.6772604","url":"","tel":"076-265-2100"},{"id":452,"name":"三池はすの里公園（指定避難場所）","name_kana":"ミイケハスノサトコウエン（シテイヒナンバショ）","address":"金沢市三池栄町346","lat":"36.597369","lon":"136.668946","url":"","tel":""},{"id":453,"name":"三池はすのみ公園（指定避難場所）","name_kana":"ミイケハスノミコウエン（シテイヒナンバショ）","address":"金沢市三池栄町201","lat":"36.596229","lon":"136.672819","url":"","tel":""},{"id":454,"name":"戸板東公園（指定避難場所）","name_kana":"トイタヒガシコウエン（シテイヒナンバショ）","address":"金沢市戸板4-19","lat":"36.581487","lon":"136.625515","url":"","tel":""},{"id":455,"name":"金沢海みらい図書館（指定避難場所）","name_kana":"カナザワウミミライトショカン（シテイヒナンバショ）","address":"金沢市寺中町イ1-1","lat":"36.594339","lon":"136.604294","url":"","tel":"076-266-2011"},{"id":456,"name":"石川県青少年総合研修センター（指定避難場所）","name_kana":"イシカワケンセイショウネンソウゴウケンシュウセンター（シテイヒナンバショ）","address":"金沢市常盤町２１２-１","lat":"36.56553","lon":"136.676434","url":"","tel":"076-252-0666"},{"id":457,"name":"金市やすらぎ公園（指定避難場所）","name_kana":"カナイチヤスラギコウエン（シテイヒナンバショ）","address":"金沢市金市町ニ12-1","lat":"36.610597","lon":"136.681584","url":"","tel":""},{"id":458,"name":"千木日吉の森公園（指定避難場所）","name_kana":"セギヒヨシノモリコウエン（シテイヒナンバショ）","address":"金沢市千木町カ66","lat":"36.610826","lon":"136.667556","url":"","tel":""},{"id":459,"name":"鞍月セントラルパーク（指定避難場所）","name_kana":"クラツキセントラルパーク（シテイヒナンバショ）","address":"金沢市鞍月1-8","lat":"36.592514","lon":"136.624893","url":"","tel":""},{"id":460,"name":"いしかわ総合スポーツセンター（指定避難場所）","name_kana":"イシカワソウゴウスポーツセンター（シテイヒナンバショ）","address":"金沢市稚日野町北222","lat":"36.579458","lon":"136.598275","url":"","tel":"076-268-2222"},{"id":461,"name":"産王の杜公園（指定避難場所）","name_kana":"サンオウノモリコウエン（シテイヒナンバショ）","address":"金沢市中屋1-177","lat":"36.562301","lon":"136.586102","url":"","tel":""},{"id":462,"name":"八洲原公園（指定避難場所）","name_kana":"ヤスハラコウエン（シテイヒナンバショ）","address":"金沢市上安原町943","lat":"36.563068","lon":"136.586666","url":"","tel":""},{"id":463,"name":"きびきの中央公園（指定避難場所）","name_kana":"キビキノチュウオウコウエン（シテイヒナンバショ）","address":"金沢市木曳野3-30","lat":"36.601589","lon":"136.604543","url":"","tel":""},{"id":464,"name":"松村あおぞら公園（指定避難場所）","name_kana":"マツムラアオゾラコウエン（シテイヒナンバショ）","address":"金沢市松村3-550","lat":"36.582291","lon":"136.615564","url":"","tel":""},{"id":465,"name":"無量寺ベイパーク（指定避難場所）","name_kana":"ムリョウジベイパーク（シテイヒナンバショ）","address":"金沢市無量寺4-2","lat":"36.599722","lon":"136.613421","url":"","tel":""},{"id":466,"name":"無量寺うみかぜ公園（指定避難場所）","name_kana":"ムリョウジウミカゼコウエン（シテイヒナンバショ）","address":"金沢市無量寺町ハ201","lat":"36.602385","lon":"136.615143","url":"","tel":""},{"id":467,"name":"大野湊緑地公園（指定避難場所）","name_kana":"オオノミナトリョクチコウエン（シテイヒナンバショ）","address":"金沢市金石本町ロ55","lat":"36.595942","lon":"136.597095","url":"","tel":""},{"id":468,"name":"笠舞第２児童公園（指定避難場所）","name_kana":"カサマイダイ２ジドウコウエン（シテイヒナンバショ）","address":"金沢市笠舞1-414","lat":"36.549485","lon":"136.673237","url":"","tel":""},{"id":469,"name":"大桑かやのした公園（指定避難場所）","name_kana":"オオクワカヤノシタコウエン（シテイヒナンバショ）","address":"金沢市大桑3-81","lat":"36.535719","lon":"136.677447","url":"","tel":""},{"id":470,"name":"金石町小学校（指定避難場所）","name_kana":"カナイワマチショウガッコウ（シテイヒナンバショ）","address":"金沢市金石北4-１-１","lat":"36.609002","lon":"136.598739","url":"","tel":"076-268-1313"},{"id":471,"name":"キゴ山ふれあい研修センターこども交流棟（指定避難場所）","name_kana":"キゴヤマフレアイケンシュウセンターコドモコウリュウトウ（シテイヒナンバショ）","address":"金沢市平等本町カ13-1","lat":"36.517923","lon":"136.742942","url":"","tel":"076-229-1141"},{"id":472,"name":"キゴ山ふれあい研修センター青少年交流棟（指定避難場所）","name_kana":"キゴヤマフレアイケンシュウセンターセイショウネンコウリュウトウ（シテイヒナンバショ）","address":"金沢市小豆沢町ヲ4","lat":"36.52372","lon":"136.746017","url":"","tel":"076-229-0583"},{"id":473,"name":"金沢勤労者プラザ（指定避難場所）","name_kana":"カナザワキンロウシャプラザ（シテイヒナンバショ）","address":"金沢市北安江3-2-20","lat":"36.583184","lon":"136.646533","url":"","tel":"076-234-7871"},{"id":474,"name":"田上本町馬場公園（指定避難場所）","name_kana":"タガミホンマチババコウエン（シテイヒナンバショ）","address":"金沢市田上本町1-1","lat":"36.532174","lon":"136.698863","url":"","tel":""},{"id":475,"name":"田上本町朝霧公園（指定避難場所）","name_kana":"タガミホンマチアサギリコウエン（シテイヒナンバショ）","address":"金沢市田上本町1-1","lat":"36.534366","lon":"136.693445","url":"","tel":""},{"id":476,"name":"女性センター（指定避難場所）","name_kana":"ジョセイセンター（シテイヒナンバショ）","address":"金沢市三社町1-44","lat":"36.570588","lon":"136.645374","url":"","tel":"076-263-0115"},{"id":477,"name":"示野公園（指定避難場所）","name_kana":"シメノコウエン（シテイヒナンバショ）","address":"金沢市示野町チ233","lat":"36.581375","lon":"136.60983","url":"","tel":""},{"id":1,"name":"三谷公民館（指定避難場所）","name_kana":"ミタニコウミンカン（シテイヒナンバショ）","address":"石川県金沢市宮野町ホ79","lat":"36.59672393","lon":"136.7369013","url":"","tel":"076-257-6727"},{"id":2,"name":"三谷小学校（指定避難場所）","name_kana":"ミタニショウガッコウ（シテイヒナンバショ）","address":"石川県金沢市宮野町ニ277","lat":"36.595839","lon":"136.735955","url":"","tel":"076-257-6464"},{"id":3,"name":"薬師谷公民館（指定避難場所）","name_kana":"ヤクシダニコウミンカン（シテイヒナンバショ）","address":"石川県金沢市不動寺町イ34-1","lat":"36.608065","lon":"136.70866","url":"","tel":"076-257-2488"},{"id":4,"name":"不動寺小学校（指定避難場所）","name_kana":"フドウジショウガッコウ（シテイヒナンバショ）","address":"石川県金沢市不動寺町イ33","lat":"36.608454","lon":"136.708621","url":"","tel":"076-258-0221"},{"id":5,"name":"柳瀬川つつみ公園（指定避難場所）","name_kana":"ヤナセガワツツミコウエン（シテイヒナンバショ）","address":"石川県金沢市大場町西21-1 ほか","lat":"36.630021","lon":"136.674668","url":"","tel":""},{"id":6,"name":"湖陽児童公園（指定避難場所）","name_kana":"コヨウジドウコウエン（シテイヒナンバショ）","address":"石川県金沢市湖陽1-133","lat":"36.626012","lon":"136.688192","url":"","tel":""},{"id":7,"name":"湖陽緑道公園（指定避難場所）","name_kana":"コヨウリョクドウコウエン（シテイヒナンバショ）","address":"石川県金沢市湖陽1-79","lat":"36.627243","lon":"136.688814","url":"","tel":""},{"id":8,"name":"北部公園（指定避難場所）","name_kana":"ホクブコウエン（シテイヒナンバショ）","address":"石川県金沢市忠縄町","lat":"36.626614","lon":"136.691389","url":"","tel":"076-257-2073"},{"id":9,"name":"金沢競馬場（指定避難場所）","name_kana":"カナザワケイバジョウ（シテイヒナンバショ）","address":"石川県金沢市八田町西1","lat":"36.636515","lon":"136.674782","url":"","tel":"076-258-5761"},{"id":10,"name":"金沢向陽高等学校（指定避難場所）","name_kana":"カナザワコウヨウコウトウガッコウ（シテイヒナンバショ）","address":"石川県金沢市大場町東590","lat":"36.624178","lon":"136.686892","url":"","tel":"076-258-2355"},{"id":11,"name":"湖南公民館（指定避難場所）","name_kana":"コナンコウミンカン（シテイヒナンバショ）","address":"石川県金沢市八田町東1459-1","lat":"36.633183","lon":"136.686089","url":"","tel":"076-258-0023"},{"id":12,"name":"旧上平小学校（指定避難場所）","name_kana":"キュウウワダイラショウガッコウ（シテイヒナンバショ）","address":"石川県金沢市上平町ハ25","lat":"36.62776985","lon":"136.7738906","url":"","tel":""},{"id":13,"name":"旧朝日小学校（指定避難場所）","name_kana":"キュウアサヒショウガッコウ（シテイヒナンバショ）","address":"石川県金沢市加賀朝日町ホ33","lat":"36.622653","lon":"136.755593","url":"","tel":"076-257-5547"},{"id":14,"name":"花園公民館（指定避難場所）","name_kana":"ハナゾノコウミンカン（シテイヒナンバショ）","address":"石川県金沢市今町チ41","lat":"36.633483","lon":"136.707671","url":"","tel":"076-258-0006"},{"id":15,"name":"花園小学校（指定避難場所）","name_kana":"ハナゾノショウガッコウ（シテイヒナンバショ）","address":"石川県金沢市今町ヌ34","lat":"36.632644","lon":"136.708209","url":"","tel":"076-258-0133"},{"id":16,"name":"森本こどもグラウンド（指定避難場所）","name_kana":"モリモトコドモグラウンド（シテイヒナンバショ）","address":"石川県金沢市塚崎町ハ47-1","lat":"36.615002","lon":"136.696808","url":"","tel":""},{"id":17,"name":"森本しちょうが丘公園（指定避難場所）","name_kana":"モリモトシチョウガオカコウエン（シテイヒナンバショ）","address":"石川県金沢市南森本町ワ102　ほか","lat":"36.616298","lon":"136.698479","url":"","tel":""},{"id":18,"name":"吉原児童公園（指定避難場所）","name_kana":"ヨシハラジドウコウエン（シテイヒナンバショ）","address":"石川県金沢市吉原町ヨ23","lat":"36.609586","lon":"136.692535","url":"","tel":""},{"id":19,"name":"森本市民体育館（指定避難場所）","name_kana":"モリモトシミンタイイクカン（シテイヒナンバショ）","address":"石川県金沢市弥勒町ヨ50-1","lat":"36.615877","lon":"136.6925","url":"","tel":"076-257-1906"},{"id":20,"name":"森本公民館（指定避難場所）","name_kana":"モリモトコウミンカン（シテイヒナンバショ）","address":"石川県金沢市南森本町チ103-1","lat":"36.616718","lon":"136.693325","url":"","tel":"076-258-0317"},{"id":21,"name":"金沢北陵高等学校（指定避難場所）","name_kana":"カナザワホクリョウコウトウガッコウ（シテイヒナンバショ）","address":"石川県金沢市吉原町ワ21","lat":"36.607317","lon":"136.692459","url":"","tel":"076-258-1100"},{"id":22,"name":"森本中学校（指定避難場所）","name_kana":"モリモトチュウガッコウ（シテイヒナンバショ）","address":"石川県金沢市弥勒町ヨ22","lat":"36.615833","lon":"136.691603","url":"","tel":"076-258-0059"},{"id":23,"name":"森本小学校（指定避難場所）","name_kana":"モリモトショウガッコウ（シテイヒナンバショ）","address":"石川県金沢市南森本町イ111","lat":"36.622793","lon":"136.693039","url":"","tel":"076-258-0048"},{"id":24,"name":"医王山公民館（指定避難場所）","name_kana":"イオウゼンコウミンカン（シテイヒナンバショ）","address":"石川県金沢市二俣町六字14-9","lat":"36.562139","lon":"136.761959","url":"","tel":"076-236-1233"},{"id":25,"name":"医王山中学校（指定避難場所）","name_kana":"イオウゼンチュウガッコウ（シテイヒナンバショ）","address":"石川県金沢市二俣町さ21","lat":"36.555637","lon":"136.759845","url":"","tel":"076-236-1013"},{"id":26,"name":"医王山小学校（指定避難場所）","name_kana":"イオウゼンショウガッコウ（シテイヒナンバショ）","address":"石川県金沢市二俣町さ21","lat":"36.555637","lon":"136.759845","url":"","tel":"076-236-1013"},{"id":27,"name":"戸室スポーツ広場（指定避難場所）","name_kana":"トムロスポーツヒロバ（シテイヒナンバショ）","address":"石川県金沢市戸室新保ト35","lat":"36.545337","lon":"136.73246","url":"","tel":"076-236-1322"},{"id":28,"name":"俵公民館（指定避難場所）","name_kana":"タワラコウミンカン（シテイヒナンバショ）","address":"石川県金沢市俵町ツ63-2","lat":"36.53441","lon":"136.725022","url":"","tel":"076-222-4855"},{"id":29,"name":"俵芸術交流スタジオ（指定避難場所）","name_kana":"タワラゲイジュツコウリュウスタジオ（シテイヒナンバショ）","address":"石川県金沢市俵町へ乙22","lat":"36.534358","lon":"136.723683","url":"","tel":"076-225-7612"},{"id":30,"name":"旧東浅川小学校（指定避難場所）","name_kana":"キュウヒガシアサカワショウガッコウ（シテイヒナンバショ）","address":"石川県金沢市浅川町イ130","lat":"36.518608","lon":"136.706352","url":"","tel":"076-229-1015"},{"id":31,"name":"太陽が丘詩の木公園（指定避難場所）","name_kana":"タイヨウガオカシノキコウエン（シテイヒナンバショ）","address":"石川県金沢市太陽が丘2-213","lat":"36.529674","lon":"136.7061","url":"","tel":""},{"id":32,"name":"太陽が丘ゆうひみ公園（指定避難場所）","name_kana":"タイヨウガオカユウヒミコウエン（シテイヒナンバショ）","address":"石川県金沢市太陽が丘2-266","lat":"36.5337","lon":"136.705724","url":"","tel":""},{"id":33,"name":"奥卯辰山健民公園（指定避難場所）","name_kana":"オクウタツヤマケンミンコウエン（シテイヒナンバショ）","address":"石川県金沢市若松町エ85","lat":"36.559773","lon":"136.696186","url":"","tel":"076-264-0395"},{"id":34,"name":"医王の杜公園（指定避難場所）","name_kana":"イオウノモリコウエン（シテイヒナンバショ）","address":"石川県金沢市もりの里1丁目1000","lat":"36.552388","lon":"136.68771","url":"","tel":""},{"id":35,"name":"若松八幡さん公園（指定避難場所）","name_kana":"ワカマツヤハタサンコウエン（シテイヒナンバショ）","address":"石川県金沢市若松町3丁目1000","lat":"36.557408","lon":"136.689092","url":"","tel":""},{"id":36,"name":"中瀬栃の木公園（指定避難場所）","name_kana":"ナカセトチノキコウエン（シテイヒナンバショ）","address":"石川県金沢市上若松町1000","lat":"36.550311","lon":"136.691578","url":"","tel":""},{"id":37,"name":"若松せせらぎ公園（指定避難場所）","name_kana":"ワカマツセセラギコウエン（シテイヒナンバショ）","address":"石川県金沢市若松町1000","lat":"36.554254","lon":"136.691648","url":"","tel":""},{"id":38,"name":"浅野川すずかけ公園（指定避難場所）","name_kana":"アサノガワスズカケコウエン（シテイヒナンバショ）","address":"石川県金沢市もりの里2丁目1000","lat":"36.555622","lon":"136.684999","url":"","tel":""},{"id":39,"name":"若松町第２児童公園（指定避難場所）","name_kana":"ワカマツマチダイ２ジドウコウエン（シテイヒナンバショ）","address":"石川県金沢市若松町ツ168-1","lat":"36.557987","lon":"136.693979","url":"","tel":""},{"id":40,"name":"田上中央公園（指定避難場所）","name_kana":"タガミチュウオウコウエン（シテイヒナンバショ）","address":"石川県金沢市田上１丁目6","lat":"36.543353","lon":"136.696564","url":"","tel":""},{"id":41,"name":"旭町中央公園（指定避難場所）","name_kana":"アサヒマチチュウオウコウエン（シテイヒナンバショ）","address":"石川県金沢市旭町２丁目207","lat":"36.553771","lon":"136.683998","url":"","tel":""},{"id":42,"name":"旭町なかよし公園（指定避難場所）","name_kana":"アサヒマチナカヨシコウエン（シテイヒナンバショ）","address":"石川県金沢市旭町２丁目8","lat":"36.555602","lon":"136.681364","url":"","tel":""},{"id":43,"name":"旭町河畔公園（指定避難場所）","name_kana":"アサヒマチカハンコウエン（シテイヒナンバショ）","address":"石川県金沢市旭町１丁目52","lat":"36.550845","lon":"136.687877","url":"","tel":""},{"id":44,"name":"田上児童公園（指定避難場所）","name_kana":"タガミジドウコウエン（シテイヒナンバショ）","address":"石川県金沢市田上新町234-1","lat":"36.543126","lon":"136.699845","url":"","tel":""},{"id":45,"name":"田上公民館（指定避難場所）","name_kana":"タガミコウミンカン（シテイヒナンバショ）","address":"石川県金沢市田上の里2-3","lat":"36.545417","lon":"136.692066","url":"","tel":"076-261-1331"},{"id":46,"name":"田上小学校（指定避難場所）","name_kana":"タガミショウガッコウ（シテイヒナンバショ）","address":"石川県金沢市田上の里2-１","lat":"36.546169","lon":"136.692973","url":"","tel":"076-221-3353"},{"id":47,"name":"杜の里小学校（指定避難場所）","name_kana":"モリノサトショウガッコウ（シテイヒナンバショ）","address":"石川県金沢市若松町3-282","lat":"36.557429","lon":"136.686316","url":"","tel":"076-222-1150"},{"id":48,"name":"芝原中学校（指定避難場所）","name_kana":"シバハラチュウガッコウ（シテイヒナンバショ）","address":"石川県金沢市湯涌荒屋町23","lat":"36.491809","lon":"136.753296","url":"","tel":"076-235-1009"},{"id":49,"name":"湯涌小学校（指定避難場所）","name_kana":"ユワクショウガッコウ（シテイヒナンバショ）","address":"石川県金沢市湯涌荒屋町23","lat":"36.491809","lon":"136.753296","url":"","tel":"076-235-1039"},{"id":50,"name":"犀清台児童公園（指定避難場所）","name_kana":"サイセイダイジドウコウエン（シテイヒナンバショ）","address":"石川県金沢市末町13の52-32","lat":"36.522795","lon":"136.684472","url":"","tel":""},{"id":51,"name":"金沢学院大学附属高等学校（指定避難場所）","name_kana":"カナザワガクインダイガクフゾクコウトウガッコウ（シテイヒナンバショ）","address":"石川県金沢市末町10","lat":"36.514181","lon":"136.695481","url":"","tel":"076-229-1180"},{"id":52,"name":"金沢辰巳丘高校（指定避難場所）","name_kana":"カナザワタツミガオカコウコウ（シテイヒナンバショ）","address":"石川県金沢市末町ニ18","lat":"36.520514","lon":"136.690984","url":"","tel":"076-229-2552"},{"id":53,"name":"犀生中学校（指定避難場所）","name_kana":"サイセイチュウガッコウ（シテイヒナンバショ）","address":"石川県金沢市末町10-4","lat":"36.514507","lon":"136.700255","url":"","tel":"076-229-3347"},{"id":54,"name":"駒帰資料保管所（旧駒帰小学校）（指定避難場所）","name_kana":"コマガエリシリョウホカンジョ（キュウコマガエリショウガッコウ）（シテイヒナンバショ）","address":"石川県金沢市駒帰町ヌ40-1","lat":"36.483192","lon":"136.727916","url":"","tel":""},{"id":55,"name":"犀川小学校（指定避難場所）","name_kana":"サイガワショウガッコウ（シテイヒナンバショ）","address":"石川県金沢市末町2-148","lat":"36.51151","lon":"136.698041","url":"","tel":"076-229-0008"},{"id":56,"name":"内川スポーツ広場（指定避難場所）","name_kana":"ウチカワスポーツヒロバ（シテイヒナンバショ）","address":"石川県金沢市山川町1-1","lat":"36.51122284","lon":"136.6864792","url":"","tel":"076-229-4013"},{"id":57,"name":"内川公民館（指定避難場所）","name_kana":"ウチカワコウミンカン（シテイヒナンバショ）","address":"石川県金沢市三小牛町20-1-10","lat":"36.509824","lon":"136.67496","url":"","tel":"076-247-2263"},{"id":58,"name":"内川中学校（指定避難場所）","name_kana":"ウチカワチュウガッコウ（シテイヒナンバショ）","address":"石川県金沢市別所町ヰ18","lat":"36.504466","lon":"136.676113","url":"","tel":"076-241-4039"},{"id":59,"name":"内川小学校（指定避難場所）","name_kana":"ウチカワショウガッコウ（シテイヒナンバショ）","address":"石川県金沢市別所町ヰ18","lat":"36.504466","lon":"136.676113","url":"","tel":"076-241-4039"},{"id":60,"name":"土清水たかみ公園（指定避難場所）","name_kana":"ツチシミズタカミコウエン（シテイヒナンバショ）","address":"石川県金沢市土清水２丁目337","lat":"36.52556","lon":"136.691031","url":"","tel":""},{"id":61,"name":"土清水なかの公園（指定避難場所）","name_kana":"ツチシミズナカノコウエン（シテイヒナンバショ）","address":"石川県金沢市土清水１丁目297","lat":"36.528314","lon":"136.691364","url":"","tel":""},{"id":62,"name":"土清水みすぎ公園（指定避難場所）","name_kana":"ツチシミズミスギコウエン（シテイヒナンバショ）","address":"石川県金沢市土清水3-66","lat":"36.532092","lon":"136.690983","url":"","tel":""},{"id":63,"name":"小立野児童公園（指定避難場所）","name_kana":"コダツノジドウコウエン（シテイヒナンバショ）","address":"石川県金沢市小立野1-729","lat":"36.545208","lon":"136.682984","url":"","tel":""},{"id":64,"name":"三口新町第３児童公園（指定避難場所）","name_kana":"ミツクチシンマチダイ３ジドウコウエン（シテイヒナンバショ）","address":"石川県金沢市三口新町4-266","lat":"36.543876","lon":"136.677121","url":"","tel":""},{"id":65,"name":"三口新町第２児童公園（指定避難場所）","name_kana":"ミツクチシンマチダイ２ジドウコウエン（シテイヒナンバショ）","address":"石川県金沢市三口新町2-145","lat":"36.539731","lon":"136.68081","url":"","tel":""},{"id":66,"name":"三口新町第１児童公園（指定避難場所）","name_kana":"ミツクチシンマチダイ１ジドウコウエン（シテイヒナンバショ）","address":"石川県金沢市三口新町3-294","lat":"36.543896","lon":"136.681155","url":"","tel":""},{"id":67,"name":"涌波堤公園（指定避難場所）","name_kana":"ワクナミツツミコウエン（シテイヒナンバショ）","address":"石川県金沢市涌波1-199","lat":"36.533319","lon":"136.688818","url":"","tel":""},{"id":68,"name":"城東市民体育館（指定避難場所）","name_kana":"ジョウトウシミンタイイクカン（シテイヒナンバショ）","address":"石川県金沢市土清水2-346","lat":"36.524789","lon":"136.691267","url":"","tel":"076-229-3230"},{"id":69,"name":"南小立野小学校（指定避難場所）","name_kana":"ミナミコダツノショウガッコウ（シテイヒナンバショ）","address":"石川県金沢市涌波2-5-1","lat":"36.537231","lon":"136.681246","url":"","tel":"076-261-9414"},{"id":70,"name":"笠舞第３児童公園（指定避難場所）","name_kana":"カサマイダイ３ジドウコウエン（シテイヒナンバショ）","address":"石川県金沢市笠舞1-234","lat":"36.547925","lon":"136.675375","url":"","tel":""},{"id":71,"name":"崎浦公民館（指定避難場所）","name_kana":"サキウラコウミンカン（シテイヒナンバショ）","address":"石川県金沢市小立野2-41-36","lat":"36.546794","lon":"136.680462","url":"","tel":"076-231-6851"},{"id":72,"name":"小立野公民館（指定避難場所）","name_kana":"コダツノコウミンカン（シテイヒナンバショ）","address":"石川県金沢市小立野4-7-51","lat":"36.550971","lon":"136.679032","url":"","tel":"076-221-0807"},{"id":73,"name":"金沢美術工芸大学（指定避難場所）","name_kana":"カナザワビジュツコウゲイダイガク（シテイヒナンバショ）","address":"石川県金沢市小立野5-11-1","lat":"36.556157","lon":"136.67731","url":"","tel":"076-262-3531"},{"id":74,"name":"北陸学院高等学校（指定避難場所）","name_kana":"ホクリクガクインコウトウガッコウ（シテイヒナンバショ）","address":"石川県金沢市飛梅町1-10","lat":"36.55945","lon":"136.667089","url":"","tel":"076-221-1944"},{"id":75,"name":"金沢商業高等学校（指定避難場所）","name_kana":"カナザワショウギョウコウトウガッコウ（シテイヒナンバショ）","address":"石川県金沢市小立野5-4-1","lat":"36.55312","lon":"136.678537","url":"","tel":"076-262-8281"},{"id":76,"name":"紫錦台中学校（指定避難場所）","name_kana":"シキンダイチュウガッコウ（シテイヒナンバショ）","address":"石川県金沢市飛梅町3-30","lat":"36.558063","lon":"136.668857","url":"","tel":"076-262-7268"},{"id":77,"name":"小立野小学校（指定避難場所）","name_kana":"コダツノショウガッコウ（シテイヒナンバショ）","address":"石川県金沢市小立野4-7-7","lat":"36.551538","lon":"136.678696","url":"","tel":"076-232-1283"},{"id":78,"name":"大野町公民館（指定避難場所）","name_kana":"オオノマチコウミンカン（シテイヒナンバショ）","address":"石川県金沢市大野町1-8-5","lat":"36.610866","lon":"136.60288","url":"","tel":"076-268-3896"},{"id":79,"name":"大野町小学校（指定避難場所）","name_kana":"オオノマチショウガッコウ（シテイヒナンバショ）","address":"石川県金沢市大野町1-15","lat":"36.610354","lon":"136.60336","url":"","tel":"076-267-1466"},{"id":80,"name":"金石銭五公園（指定避難場所）","name_kana":"カナイワゼニゴコウエン（シテイヒナンバショ）","address":"石川県金沢市金石北2-147","lat":"36.607623","lon":"136.597182","url":"","tel":""},{"id":81,"name":"松寿荘（指定避難場所）","name_kana":"ショウジュソウ（シテイヒナンバショ）","address":"石川県金沢市金石北3-3-33","lat":"36.608001","lon":"136.599509","url":"","tel":"076-268-6757"},{"id":82,"name":"金石町公民館（指定避難場所）","name_kana":"カナイワマチコウミンカン（シテイヒナンバショ）","address":"石川県金沢市金石通町3-14","lat":"36.604349","lon":"136.594289","url":"","tel":"076-267-2774"},{"id":83,"name":"金石中学校（指定避難場所）","name_kana":"カナイワチュウガッコウ（シテイヒナンバショ）","address":"石川県金沢市金石東1-13-1","lat":"36.60018","lon":"136.597524","url":"","tel":"076-267-2245"},{"id":84,"name":"無量寺公園（指定避難場所）","name_kana":"ムリョウジコウエン（シテイヒナンバショ）","address":"石川県金沢市無量寺3-14","lat":"36.605021","lon":"136.608341","url":"","tel":""},{"id":85,"name":"城西市民体育館（指定避難場所）","name_kana":"ジョウサイシミンタイイクカン（シテイヒナンバショ）","address":"石川県金沢市木曳野1-3","lat":"36.598012","lon":"136.603011","url":"","tel":"076-268-3899"},{"id":86,"name":"大徳公民館（指定避難場所）","name_kana":"ダイトクコウミンカン（シテイヒナンバショ）","address":"石川県金沢市畝田西1-201-1","lat":"36.59234","lon":"136.609935","url":"","tel":"076-268-3214"},{"id":87,"name":"大徳中学校（指定避難場所）","name_kana":"ダイトクチュウガッコウ（シテイヒナンバショ）","address":"石川県金沢市観音堂町ト35","lat":"36.590408","lon":"136.607378","url":"","tel":"076-267-5027"},{"id":88,"name":"木曳野小学校（指定避難場所）","name_kana":"キビキノショウガッコウ（シテイヒナンバショ）","address":"石川県金沢市木曳野1-1","lat":"36.597812","lon":"136.603864","url":"","tel":"076-268-7332"},{"id":89,"name":"藤江北中央公園（指定避難場所）","name_kana":"フジエキタチュウオウコウエン（シテイヒナンバショ）","address":"石川県金沢市藤江北2-337","lat":"36.589613","lon":"136.622187","url":"","tel":""},{"id":90,"name":"藤江北やすらぎ公園（指定避難場所）","name_kana":"フジエキタヤスラギコウエン（シテイヒナンバショ）","address":"石川県金沢市藤江北4-446","lat":"36.591961","lon":"136.619877","url":"","tel":""},{"id":91,"name":"松村第２公園（指定避難場所）","name_kana":"マツムラダイ２コウエン（シテイヒナンバショ）","address":"石川県金沢市松村2-29","lat":"36.585716","lon":"136.614206","url":"","tel":""},{"id":92,"name":"畝田町児童公園（指定避難場所）","name_kana":"ウネダマチジドウコウエン（シテイヒナンバショ）","address":"石川県金沢市畝田東2-7","lat":"36.595316","lon":"136.614081","url":"","tel":""},{"id":93,"name":"金沢西高等学校（指定避難場所）","name_kana":"カナザワニシコウトウガッコウ（シテイヒナンバショ）","address":"石川県金沢市畝田東3-526","lat":"36.596728","lon":"136.617904","url":"","tel":"076-268-4321"},{"id":94,"name":"市立工業高等学校（指定避難場所）","name_kana":"シリツコウギョウコウトウガッコウ（シテイヒナンバショ）","address":"石川県金沢市畝田東1-1-1","lat":"36.592484","lon":"136.615654","url":"","tel":"076-267-3101"},{"id":95,"name":"大徳小学校（指定避難場所）","name_kana":"ダイトクショウガッコウ（シテイヒナンバショ）","address":"石川県金沢市松村6-200","lat":"36.591196","lon":"136.61002","url":"","tel":"076-267-0564"},{"id":96,"name":"上安原中央公園（指定避難場所）","name_kana":"カミヤスハラチュウオウコウエン（シテイヒナンバショ）","address":"石川県金沢市上安原1-262","lat":"36.565345","lon":"136.590491","url":"","tel":""},{"id":97,"name":"福増ゆめ公園（指定避難場所）","name_kana":"フクマスユメコウエン（シテイヒナンバショ）","address":"石川県金沢市福増町南1310","lat":"36.561182","lon":"136.581092","url":"","tel":""},{"id":98,"name":"福増あじさい公園（指定避難場所）","name_kana":"フクマスアジサイコウエン（シテイヒナンバショ）","address":"石川県金沢市福増町南1309","lat":"36.562854","lon":"136.581809","url":"","tel":""},{"id":99,"name":"打木町くろまつ公園（指定避難場所）","name_kana":"ウツギマチクロマツコウエン（シテイヒナンバショ）","address":"石川県金沢市打木町東1452","lat":"36.568203","lon":"136.569794","url":"","tel":""},{"id":100,"name":"打木町東児童公園（指定避難場所）","name_kana":"ウツギマチヒガシジドウコウエン（シテイヒナンバショ）","address":"石川県金沢市打木町東1301","lat":"36.569134","lon":"136.572498","url":"","tel":""},{"id":101,"name":"みどり第２児童公園（指定避難場所）","name_kana":"ミドリダイ２ジドウコウエン（シテイヒナンバショ）","address":"石川県金沢市みどり1-172","lat":"36.568723","lon":"136.590421","url":"","tel":""},{"id":102,"name":"みどり庭園公園（指定避難場所）","name_kana":"ミドリテイエンコウエン（シテイヒナンバショ）","address":"石川県金沢市みどり3-22","lat":"36.567626","lon":"136.583898","url":"","tel":""},{"id":103,"name":"みどり中央公園（指定避難場所）","name_kana":"ミドリチュウオウコウエン（シテイヒナンバショ）","address":"石川県金沢市みどり2-58-1","lat":"36.56772295","lon":"136.5847993","url":"","tel":""},{"id":104,"name":"安原中央公園（指定避難場所）","name_kana":"ヤスハラチュウオウコウエン（シテイヒナンバショ）","address":"石川県金沢市福増町北744","lat":"36.565814","lon":"136.577187","url":"","tel":""},{"id":105,"name":"安原スポーツ広場（指定避難場所）","name_kana":"ヤスハラスポーツヒロバ（シテイヒナンバショ）","address":"石川県金沢市下安原町東1127","lat":"36.570058","lon":"136.573433","url":"","tel":"076-240-2098"},{"id":106,"name":"安原公民館（指定避難場所）","name_kana":"ヤスハラコウミンカン（シテイヒナンバショ）","address":"石川県金沢市福増町北1067","lat":"36.567918","lon":"136.580305","url":"","tel":"076-249-2282"},{"id":107,"name":"金沢龍谷高等学校（指定避難場所）","name_kana":"カナザワリュウコクコウトウガッコウ（シテイヒナンバショ）","address":"石川県金沢市上安原町169-1","lat":"36.56595647","lon":"136.586194","url":"","tel":"076-240-7777"},{"id":108,"name":"緑中学校（指定避難場所）","name_kana":"ミドリチュウガッコウ（シテイヒナンバショ）","address":"石川県金沢市みどり2-3","lat":"36.570274","lon":"136.584338","url":"","tel":"076-240-2151"},{"id":109,"name":"安原小学校（指定避難場所）","name_kana":"ヤスハラショウガッコウ（シテイヒナンバショ）","address":"石川県金沢市福増町北1087","lat":"36.566952","lon":"136.579397","url":"","tel":"076-249-4471"},{"id":110,"name":"加賀友禅染色団地公園（指定避難場所）","name_kana":"カガユウゼンセンショクダンチコウエン（シテイヒナンバショ）","address":"石川県金沢市専光寺町ニ172","lat":"36.5829","lon":"136.586688","url":"","tel":""},{"id":111,"name":"専光寺五本松公園（指定避難場所）","name_kana":"センコウジゴホンマツコウエン（シテイヒナンバショ）","address":"石川県金沢市専光寺町そ94","lat":"36.582069","lon":"136.580521","url":"","tel":""},{"id":112,"name":"西部緑地公園（指定避難場所）","name_kana":"セイブリョクチコウエン（シテイヒナンバショ）","address":"石川県金沢市袋畠町南193","lat":"36.574707","lon":"136.602598","url":"","tel":""},{"id":113,"name":"松島町西公園（指定避難場所）","name_kana":"マツシママチニシコウエン（シテイヒナンバショ）","address":"石川県金沢市松島3-179","lat":"36.566532","lon":"136.601472","url":"","tel":""},{"id":114,"name":"古府徳代公園（指定避難場所）","name_kana":"コフトクダイコウエン（シテイヒナンバショ）","address":"石川県金沢市古府2-4","lat":"36.566639","lon":"136.609468","url":"","tel":""},{"id":115,"name":"古府中央公園（指定避難場所）","name_kana":"コフチュウオウコウエン（シテイヒナンバショ）","address":"石川県金沢市古府3-95","lat":"36.57098","lon":"136.607759","url":"","tel":""},{"id":116,"name":"松島町中央公園（指定避難場所）","name_kana":"マツシママチチュウオウコウエン（シテイヒナンバショ）","address":"石川県金沢市松島2-165","lat":"36.564237","lon":"136.60196","url":"","tel":""},{"id":117,"name":"健民海浜公園（指定避難場所）","name_kana":"ケンタミカイヒンコウエン（シテイヒナンバショ）","address":"石川県金沢市普正寺町11-1-1","lat":"36.593358","lon":"136.582986","url":"","tel":"076-267-2266"},{"id":118,"name":"専光寺ソフトボール場（指定避難場所）","name_kana":"センコウジソフトボールジョウ（シテイヒナンバショ）","address":"石川県金沢市専光寺町レ3-5","lat":"36.586264","lon":"136.579016","url":"","tel":"076-268-7090"},{"id":119,"name":"二塚公民館（指定避難場所）","name_kana":"フタツカコウミンカン（シテイヒナンバショ）","address":"石川県金沢市北塚町西98","lat":"36.572815","lon":"136.597162","url":"","tel":"076-249-3474"},{"id":120,"name":"緑小学校（指定避難場所）","name_kana":"ミドリショウガッコウ（シテイヒナンバショ）","address":"石川県金沢市みどり1-166","lat":"36.570126","lon":"136.590808","url":"","tel":"076-249-0100"},{"id":121,"name":"西念町第２公園（指定避難場所）","name_kana":"サイネンマチダイ２コウエン（シテイヒナンバショ）","address":"石川県金沢市西念2-3101","lat":"36.587019","lon":"136.641398","url":"","tel":""},{"id":122,"name":"西念町児童公園（指定避難場所）","name_kana":"サイネンマチジドウコウエン（シテイヒナンバショ）","address":"石川県金沢市西念3-701","lat":"36.587554","lon":"136.636842","url":"","tel":""},{"id":123,"name":"南新保第２児童公園（指定避難場所）","name_kana":"ミナミシンボダイ２ジドウコウエン（シテイヒナンバショ）","address":"石川県金沢市駅西新町2-1101","lat":"36.594693","lon":"136.639313","url":"","tel":""},{"id":124,"name":"姉妹都市公園（指定避難場所）","name_kana":"シマイトシコウエン（シテイヒナンバショ）","address":"金沢市駅西新町3-1001","lat":"36.591791","lon":"136.635174","url":"","tel":""},{"id":125,"name":"西公民館（指定避難場所）","name_kana":"ニシコウミンカン（シテイヒナンバショ）","address":"金沢市西念2-34-9","lat":"36.586902","lon":"136.640583","url":"","tel":"076-262-6716"},{"id":126,"name":"西小学校（指定避難場所）","name_kana":"ニシショウガッコウ（シテイヒナンバショ）","address":"金沢市駅西新町3-15-1","lat":"36.592157","lon":"136.636518","url":"","tel":"076-263-5338"},{"id":127,"name":"西都ゆめみどり公園（指定避難場所）","name_kana":"セイトユメミドリコウエン（シテイヒナンバショ）","address":"金沢市西都2-15","lat":"36.589968","lon":"136.626399","url":"","tel":""},{"id":128,"name":"駅西第４児童公園（指定避難場所）","name_kana":"エキニシダイ４ジドウコウエン（シテイヒナンバショ）","address":"金沢市駅西本町３-406","lat":"36.582982","lon":"136.636137","url":"","tel":""},{"id":129,"name":"桜田中央公園（指定避難場所）","name_kana":"サクラダチュウオウコウエン（シテイヒナンバショ）","address":"金沢市桜田町1-116","lat":"36.579342","lon":"136.620191","url":"","tel":""},{"id":130,"name":"北町児童公園（指定避難場所）","name_kana":"キタマチジドウコウエン（シテイヒナンバショ）","address":"金沢市駅西本町6-403","lat":"36.585438","lon":"136.626571","url":"","tel":""},{"id":131,"name":"出雲中央公園（指定避難場所）","name_kana":"イズモチュウオウコウエン（シテイヒナンバショ）","address":"金沢市出雲町イ418","lat":"36.576275","lon":"136.624909","url":"","tel":""},{"id":132,"name":"桜田南児童公園（指定避難場所）","name_kana":"サクラダミナミジドウコウエン（シテイヒナンバショ）","address":"金沢市桜田町2-65","lat":"36.576876","lon":"136.621285","url":"","tel":""},{"id":133,"name":"大豆田公園（指定避難場所）","name_kana":"マメダコウエン（シテイヒナンバショ）","address":"金沢市大豆田本町甲535","lat":"36.572884","lon":"136.6329","url":"","tel":""},{"id":134,"name":"示野中青島公園（指定避難場所）","name_kana":"シメノナカアオシマコウエン（シテイヒナンバショ）","address":"金沢市示野中町2-114","lat":"36.575542","lon":"136.615693","url":"","tel":""},{"id":135,"name":"示野中中央公園（指定避難場所）","name_kana":"シメノナカチュウオウコウエン（シテイヒナンバショ）","address":"金沢市示野中町1-40","lat":"36.577935","lon":"136.617135","url":"","tel":""},{"id":136,"name":"若宮中央公園（指定避難場所）","name_kana":"ワカミヤチュウオウコウエン（シテイヒナンバショ）","address":"金沢市若宮2-29","lat":"36.575211","lon":"136.631083","url":"","tel":""},{"id":137,"name":"示野町児童公園（指定避難場所）","name_kana":"シメノマチジドウコウエン（シテイヒナンバショ）","address":"金沢市示野町西26","lat":"36.58144199","lon":"136.6072695","url":"","tel":""},{"id":138,"name":"戸板公民館（指定避難場所）","name_kana":"トイタコウミンカン（シテイヒナンバショ）","address":"金沢市戸板1-2","lat":"36.57987613","lon":"136.6225111","url":"","tel":"076-231-5830"},{"id":139,"name":"長田中学校（指定避難場所）","name_kana":"ナガタチュウガッコウ（シテイヒナンバショ）","address":"金沢市二宮町1-1","lat":"36.585149","lon":"136.62912","url":"","tel":"076-231-0035"},{"id":140,"name":"戸板小学校（指定避難場所）","name_kana":"トイタショウガッコウ（シテイヒナンバショ）","address":"金沢市戸板1-1","lat":"36.57923","lon":"136.622833","url":"","tel":"076-231-5485"},{"id":141,"name":"長田２丁目ひまわり公園（指定避難場所）","name_kana":"ナガタ２チョウメヒマワリコウエン（シテイヒナンバショ）","address":"金沢市長田2-9","lat":"36.574896","lon":"136.640104","url":"","tel":""},{"id":142,"name":"駅西第３児童公園（指定避難場所）","name_kana":"エキニシダイ３ジドウコウエン（シテイヒナンバショ）","address":"金沢市駅西本町1-904","lat":"36.57988","lon":"136.639932","url":"","tel":""},{"id":143,"name":"駅西中央公園（指定避難場所）","name_kana":"エキニシチュウオウコウエン（シテイヒナンバショ）","address":"金沢市西念1-1101","lat":"36.582693","lon":"136.643572","url":"","tel":""},{"id":144,"name":"駅西第１児童公園（指定避難場所）","name_kana":"エキニシダイ１ジドウコウエン（シテイヒナンバショ）","address":"金沢市広岡2-802","lat":"36.578521","lon":"136.643274","url":"","tel":""},{"id":145,"name":"長田町公民館（指定避難場所）","name_kana":"ナガタマチコウミンカン（シテイヒナンバショ）","address":"金沢市長田1-5-50","lat":"36.575882","lon":"136.642986","url":"","tel":"076-263-3900"},{"id":146,"name":"長田町小学校（指定避難場所）","name_kana":"ナガタマチショウガッコウ（シテイヒナンバショ）","address":"金沢市長田1-5-40","lat":"36.575357","lon":"136.6421","url":"","tel":"076-231-7221"},{"id":147,"name":"額新町２丁目緑地（指定避難場所）","name_kana":"ヌカシンマチ２チョウメリョクチ（シテイヒナンバショ）","address":"金沢市額新町2-49","lat":"36.51631","lon":"136.619923","url":"","tel":""},{"id":148,"name":"額新町１丁目緑地（指定避難場所）","name_kana":"ヌカシンマチ１チョウメリョクチ（シテイヒナンバショ）","address":"金沢市額新町1-183","lat":"36.520147","lon":"136.621827","url":"","tel":""},{"id":149,"name":"光が丘１丁目児童公園（指定避難場所）","name_kana":"ヒカリガオカ１チョウメジドウコウエン（シテイヒナンバショ）","address":"金沢市光が丘1-67","lat":"36.52077","lon":"136.625724","url":"","tel":""},{"id":150,"name":"高尾南ゆうあい公園（指定避難場所）","name_kana":"タカオミナミユウアイコウエン（シテイヒナンバショ）","address":"金沢市高尾南2-119","lat":"36.517324","lon":"136.630939","url":"","tel":""},{"id":151,"name":"馬替児童公園（指定避難場所）","name_kana":"マガエジドウコウエン（シテイヒナンバショ）","address":"金沢市馬替2-39-1","lat":"36.523355","lon":"136.622348","url":"","tel":""},{"id":152,"name":"城谷公園（指定避難場所）","name_kana":"シロタニコウエン（シテイヒナンバショ）","address":"金沢市高尾台4-57","lat":"36.523307","lon":"136.627063","url":"","tel":""},{"id":153,"name":"高尾第３児童公園（指定避難場所）","name_kana":"タカオダイ３ジドウコウエン（シテイヒナンバショ）","address":"金沢市高尾南1-165","lat":"36.515297","lon":"136.634318","url":"","tel":""},{"id":154,"name":"あすなろ公園（指定避難場所）","name_kana":"アスナロコウエン（シテイヒナンバショ）","address":"金沢市額新町1-26","lat":"36.518021","lon":"136.620199","url":"","tel":""},{"id":155,"name":"額新町第３児童公園（指定避難場所）","name_kana":"ヌカシンマチダイ３ジドウコウエン（シテイヒナンバショ）","address":"金沢市額新町2-77-1","lat":"36.517222","lon":"136.620341","url":"","tel":""},{"id":156,"name":"額新町第２公園（指定避難場所）","name_kana":"ヌカシンマチダイ２コウエン（シテイヒナンバショ）","address":"金沢市額新町1-218-1","lat":"36.519082","lon":"136.623734","url":"","tel":""},{"id":157,"name":"扇台公民館（指定避難場所）","name_kana":"オウギダイコウミンカン（シテイヒナンバショ）","address":"金沢市馬替1-29-1","lat":"36.522124","lon":"136.624092","url":"","tel":"076-296-8585"},{"id":158,"name":"扇台小学校（指定避難場所）","name_kana":"オウギダイショウガッコウ（シテイヒナンバショ）","address":"金沢市馬替1-34","lat":"36.523109","lon":"136.624957","url":"","tel":"076-298-2711"},{"id":159,"name":"三十苅児童公園（指定避難場所）","name_kana":"サンジュウガリジドウコウエン（シテイヒナンバショ）","address":"金沢市三十苅町丙184","lat":"36.508149","lon":"136.619022","url":"","tel":""},{"id":160,"name":"三十苅中央公園（指定避難場所）","name_kana":"サンジュウガリチュウオウコウエン（シテイヒナンバショ）","address":"金沢市三十苅町丁154","lat":"36.507467","lon":"136.615258","url":"","tel":""},{"id":161,"name":"中四十万児童公園（指定避難場所）","name_kana":"ナカシジマジドウコウエン（シテイヒナンバショ）","address":"金沢市四十万町リ407","lat":"36.499878","lon":"136.621138","url":"","tel":""},{"id":162,"name":"四十万あいぞめ公園（指定避難場所）","name_kana":"シジマアイゾメコウエン（シテイヒナンバショ）","address":"金沢市南四十万1-221","lat":"36.497739","lon":"136.619378","url":"","tel":""},{"id":163,"name":"四十万中央公園（指定避難場所）","name_kana":"シジマチュウオウコウエン（シテイヒナンバショ）","address":"金沢市四十万3-185","lat":"36.503418","lon":"136.618273","url":"","tel":""},{"id":164,"name":"四十万小学校（指定避難場所）","name_kana":"シジマショウガッコウ（シテイヒナンバショ）","address":"金沢市四十万3-186","lat":"36.50322","lon":"136.617619","url":"","tel":"076-298-3015"},{"id":165,"name":"額谷運動広場（指定避難場所）","name_kana":"ヌカダニウンドウヒロバ（シテイヒナンバショ）","address":"金沢市額谷町ホ2-3","lat":"36.509214","lon":"136.629431","url":"","tel":""},{"id":166,"name":"光が丘３丁目児童公園（指定避難場所）","name_kana":"ヒカリガオカ３チョウメジドウコウエン（シテイヒナンバショ）","address":"金沢市光が丘3-19","lat":"36.513111","lon":"136.627245","url":"","tel":""},{"id":167,"name":"額谷第１児童公園（指定避難場所）","name_kana":"ヌカダニダイ１ジドウコウエン（シテイヒナンバショ）","address":"金沢市額谷2-49","lat":"36.508636","lon":"136.626197","url":"","tel":""},{"id":168,"name":"額乙丸児童公園（指定避難場所）","name_kana":"ヌカオトマルジドウコウエン（シテイヒナンバショ）","address":"金沢市額乙丸町ハ151","lat":"36.51061922","lon":"136.6180694","url":"","tel":""},{"id":169,"name":"大額２丁目公園（指定避難場所）","name_kana":"オオヌカ２チョウメコウエン（シテイヒナンバショ）","address":"金沢市大額2-132","lat":"36.516795","lon":"136.62407","url":"","tel":""},{"id":170,"name":"大額１丁目公園（指定避難場所）","name_kana":"オオヌカ１チョウメコウエン（シテイヒナンバショ）","address":"金沢市大額1-378","lat":"36.514228","lon":"136.618633","url":"","tel":""},{"id":171,"name":"額せせらぎ公園（指定避難場所）","name_kana":"ヌカセセラギコウエン（シテイヒナンバショ）","address":"金沢市額谷1-1","lat":"36.511973","lon":"136.625499","url":"","tel":""},{"id":172,"name":"額谷ふれあい公園（指定避難場所）","name_kana":"ヌカダニフレアイコウエン（シテイヒナンバショ）","address":"金沢市額谷町ヌ16","lat":"36.509214","lon":"136.629431","url":"","tel":""},{"id":173,"name":"額新保中央公園（指定避難場所）","name_kana":"ヌカシンボチュウオウコウエン（シテイヒナンバショ）","address":"金沢市額新保2-350","lat":"36.516375","lon":"136.616278","url":"","tel":""},{"id":174,"name":"光が丘中央公園（指定避難場所）","name_kana":"ヒカリガオカチュウオウコウエン（シテイヒナンバショ）","address":"金沢市光が丘2-105","lat":"36.516261","lon":"136.627956","url":"","tel":""},{"id":175,"name":"鶴寿園（指定避難場所）","name_kana":"カクジュエン（シテイヒナンバショ）","address":"金沢市額谷町ヌ1","lat":"36.50983","lon":"136.629437","url":"","tel":"076-298-9355"},{"id":176,"name":"額谷ふれあい体育館（指定避難場所）","name_kana":"ヌカダニフレアイタイイクカン（シテイヒナンバショ）","address":"金沢市額谷町ヌ16","lat":"36.509438","lon":"136.629925","url":"","tel":"076-296-1123"},{"id":177,"name":"額公民館（指定避難場所）","name_kana":"ヌカコウミンカン（シテイヒナンバショ）","address":"金沢市額谷3-1-1","lat":"36.510864","lon":"136.624167","url":"","tel":"076-296-1515"},{"id":178,"name":"額中学校（指定避難場所）","name_kana":"ヌカチュウガッコウ（シテイヒナンバショ）","address":"金沢市額乙丸町イ7","lat":"36.511025","lon":"136.623219","url":"","tel":"076-298-3520"},{"id":179,"name":"額小学校（指定避難場所）","name_kana":"ヌカショウガッコウ（シテイヒナンバショ）","address":"金沢市額乙丸町イ41","lat":"36.51049","lon":"136.621857","url":"","tel":"076-298-0167"},{"id":180,"name":"的場公園（指定避難場所）","name_kana":"マトバコウエン（シテイヒナンバショ）","address":"金沢市高尾台1-354","lat":"36.522182","lon":"136.636443","url":"","tel":""},{"id":181,"name":"横川日吉児童公園（指定避難場所）","name_kana":"ヨコガワヒヨシジドウコウエン（シテイヒナンバショ）","address":"金沢市横川1-68","lat":"36.535364","lon":"136.623096","url":"","tel":""},{"id":182,"name":"三馬第４児童公園（指定避難場所）","name_kana":"ミンマダイ４ジドウコウエン（シテイヒナンバショ）","address":"金沢市三馬3-325","lat":"36.52748","lon":"136.630585","url":"","tel":""},{"id":183,"name":"三馬第３児童公園（指定避難場所）","name_kana":"ミンマダイ３ジドウコウエン（シテイヒナンバショ）","address":"金沢市三馬1-73","lat":"36.52642","lon":"136.634763","url":"","tel":""},{"id":184,"name":"三馬第２児童公園（指定避難場所）","name_kana":"ミンマダイ２ジドウコウエン（シテイヒナンバショ）","address":"金沢市三馬1-229","lat":"36.52526","lon":"136.631247","url":"","tel":""},{"id":185,"name":"窪錦丘公園（指定避難場所）","name_kana":"クボニシキガオカコウエン（シテイヒナンバショ）","address":"金沢市窪7-309","lat":"36.530685","lon":"136.639181","url":"","tel":""},{"id":186,"name":"三馬第１児童公園（指定避難場所）","name_kana":"ミンマダイ１ジドウコウエン（シテイヒナンバショ）","address":"金沢市三馬3-150","lat":"36.528562","lon":"136.632062","url":"","tel":""},{"id":187,"name":"久安殿屋敷公園（指定避難場所）","name_kana":"ヒサヤストノヤシキコウエン（シテイヒナンバショ）","address":"金沢市久安2-281","lat":"36.533786","lon":"136.630611","url":"","tel":""},{"id":188,"name":"久安伏見公園（指定避難場所）","name_kana":"ヒサヤスフシミコウエン（シテイヒナンバショ）","address":"金沢市久安1-489","lat":"36.532748","lon":"136.632315","url":"","tel":""},{"id":189,"name":"円光寺第２公園（指定避難場所）","name_kana":"エンコウジダイ２コウエン（シテイヒナンバショ）","address":"金沢市伏見台3-58","lat":"36.531734","lon":"136.634945","url":"","tel":""},{"id":190,"name":"窪伏見台公園（指定避難場所）","name_kana":"クボフシミダイコウエン（シテイヒナンバショ）","address":"金沢市窪4-547","lat":"36.526924","lon":"136.639675","url":"","tel":""},{"id":191,"name":"高尾中央公園（指定避難場所）","name_kana":"タカオチュウオウコウエン（シテイヒナンバショ）","address":"金沢市高尾台3-143","lat":"36.521475","lon":"136.630418","url":"","tel":""},{"id":192,"name":"伏見台公民館（指定避難場所）","name_kana":"フシミダイコウミンカン（シテイヒナンバショ）","address":"金沢市窪5-675","lat":"36.525946","lon":"136.638014","url":"","tel":"076-243-3341"},{"id":193,"name":"高尾台中学校（指定避難場所）","name_kana":"タカオダイチュウガッコウ（シテイヒナンバショ）","address":"金沢市高尾台1-128","lat":"36.522924","lon":"136.634259","url":"","tel":"076-298-6931"},{"id":194,"name":"伏見台小学校（指定避難場所）","name_kana":"フシミダイショウガッコウ（シテイヒナンバショ）","address":"金沢市窪5-335","lat":"36.526588","lon":"136.637939","url":"","tel":"076-244-5091"},{"id":195,"name":"大乗寺丘陵公園（指定避難場所）","name_kana":"ダイジョウジキュウリョウコウエン（シテイヒナンバショ）","address":"金沢市長坂町ヲ135","lat":"36.530407","lon":"136.656704","url":"","tel":""},{"id":196,"name":"寺地なかよし公園（指定避難場所）","name_kana":"テラジナカヨシコウエン（シテイヒナンバショ）","address":"金沢市伏見台2-72","lat":"36.533417","lon":"136.637974","url":"","tel":""},{"id":197,"name":"寺地みんなの広場（指定避難場所）","name_kana":"テラジミンナノヒロバ（シテイヒナンバショ）","address":"金沢市寺地1-39","lat":"36.535528","lon":"136.644004","url":"","tel":""},{"id":198,"name":"寺地いなほ公園（指定避難場所）","name_kana":"テラジイナホコウエン（シテイヒナンバショ）","address":"金沢市寺地2-69","lat":"36.536918","lon":"136.635895","url":"","tel":""},{"id":199,"name":"金沢南総合運動公園（指定避難場所）","name_kana":"カナザワミナミソウゴウウンドウコウエン（シテイヒナンバショ）","address":"金沢市富樫3-8-30","lat":"36.539295","lon":"136.642896","url":"","tel":""},{"id":200,"name":"富樫公民館（指定避難場所）","name_kana":"トガシコウミンカン（シテイヒナンバショ）","address":"金沢市山科1-6-8","lat":"36.528441","lon":"136.647252","url":"","tel":"076-241-1971"},{"id":201,"name":"金沢錦丘高等学校・中学校（指定避難場所）","name_kana":"カナザワニシキガオカコウトウガッコウ・チュウガッコウ（シテイヒナンバショ）","address":"金沢市窪6-218","lat":"36.530269","lon":"136.641566","url":"","tel":"076-241-8341"},{"id":202,"name":"富樫小学校（指定避難場所）","name_kana":"トガシショウガッコウ（シテイヒナンバショ）","address":"金沢市山科3-6-60","lat":"36.529502","lon":"136.645546","url":"","tel":"076-243-2533"},{"id":203,"name":"米泉公民館（指定避難場所）","name_kana":"ヨナイズミコウミンカン（シテイヒナンバショ）","address":"金沢市米泉町8-126","lat":"36.550537","lon":"136.626615","url":"","tel":"076-241-8924"},{"id":204,"name":"金沢伏見高等学校（指定避難場所）","name_kana":"カナザワフシミコウトウガッコウ（シテイヒナンバショ）","address":"金沢市米泉町5-85","lat":"36.549026","lon":"136.627854","url":"","tel":"076-242-6175"},{"id":205,"name":"米泉小学校（指定避難場所）","name_kana":"ヨナイズミショウガッコウ（シテイヒナンバショ）","address":"金沢市米泉町4-133-2","lat":"36.545708","lon":"136.628058","url":"","tel":"076-242-0551"},{"id":206,"name":"清泉公園（指定避難場所）","name_kana":"セイセンコウエン（シテイヒナンバショ）","address":"金沢市泉本町1-160-6","lat":"36.546958","lon":"136.63589","url":"","tel":""},{"id":207,"name":"横川児童公園（指定避難場所）","name_kana":"ヨコガワジドウコウエン（シテイヒナンバショ）","address":"金沢市横川4-2","lat":"36.539342","lon":"136.630113","url":"","tel":""},{"id":208,"name":"有松たつあがり公園（指定避難場所）","name_kana":"アリマツタツアガリコウエン（シテイヒナンバショ）","address":"金沢市有松3-33","lat":"36.540812","lon":"136.640353","url":"","tel":""},{"id":209,"name":"有松児童遊園（指定避難場所）","name_kana":"アリマツジドウユウエン（シテイヒナンバショ）","address":"金沢市有松4-155","lat":"36.54039","lon":"136.636617","url":"","tel":""},{"id":210,"name":"三馬公民館（指定避難場所）","name_kana":"ミンマコウミンカン（シテイヒナンバショ）","address":"金沢市久安6-59-1","lat":"36.542105","lon":"136.634544","url":"","tel":"076-243-2734"},{"id":211,"name":"金沢高等学校（指定避難場所）","name_kana":"カナザワコウトウガッコウ（シテイヒナンバショ）","address":"金沢市泉本町3-111","lat":"36.550638","lon":"136.635514","url":"","tel":"076-242-3321"},{"id":212,"name":"清泉中学校（指定避難場所）","name_kana":"セイセンチュウガッコウ（シテイヒナンバショ）","address":"金沢市泉本町3-3","lat":"36.547902","lon":"136.63624","url":"","tel":"076-226-0881"},{"id":213,"name":"三馬小学校（指定避難場所）","name_kana":"ミンマショウガッコウ（シテイヒナンバショ）","address":"金沢市久安6-154","lat":"36.543588","lon":"136.633615","url":"","tel":"076-243-2261"},{"id":214,"name":"いなほふれあい公園（指定避難場所）","name_kana":"イナホフレアイコウエン（シテイヒナンバショ）","address":"金沢市いなほ1-8","lat":"36.552521","lon":"136.582514","url":"","tel":""},{"id":215,"name":"神野東公園（指定避難場所）","name_kana":"カミノヒガシコウエン（シテイヒナンバショ）","address":"金沢市神野町東107-2","lat":"36.563901","lon":"136.600074","url":"","tel":""},{"id":216,"name":"上荒屋１丁目くすのき公園（指定避難場所）","name_kana":"カミアラヤ１チョウメクスノキコウエン（シテイヒナンバショ）","address":"金沢市上荒屋1-346","lat":"36.547781","lon":"136.592031","url":"","tel":""},{"id":217,"name":"矢木第１児童公園（指定避難場所）","name_kana":"ヤギダイ１ジドウコウエン（シテイヒナンバショ）","address":"金沢市矢木3-308","lat":"36.560157","lon":"136.593297","url":"","tel":""},{"id":218,"name":"上荒屋もくれん公園（指定避難場所）","name_kana":"カミアラヤモクレンコウエン（シテイヒナンバショ）","address":"金沢市上荒屋6-446","lat":"36.553336","lon":"136.588619","url":"","tel":""},{"id":219,"name":"上荒屋にれの木公園（指定避難場所）","name_kana":"カミアラヤニレノキコウエン（シテイヒナンバショ）","address":"金沢市上荒屋5-453","lat":"36.557434","lon":"136.589472","url":"","tel":""},{"id":220,"name":"上荒屋つばき公園（指定避難場所）","name_kana":"カミアラヤツバキコウエン（シテイヒナンバショ）","address":"金沢市上荒屋8-43","lat":"36.550466","lon":"136.589906","url":"","tel":""},{"id":221,"name":"三和公民館（指定避難場所）","name_kana":"ミワコウミンカン（シテイヒナンバショ）","address":"金沢市上荒屋4-82","lat":"36.553753","lon":"136.593355","url":"","tel":"076-240-7530"},{"id":222,"name":"三和小学校（指定避難場所）","name_kana":"ミワショウガッコウ（シテイヒナンバショ）","address":"金沢市矢木1-74","lat":"36.557951","lon":"136.596746","url":"","tel":"076-240-0088"},{"id":223,"name":"八日市出町ふるみや公園（指定避難場所）","name_kana":"ヨウカイチデマチフルミヤコウエン（シテイヒナンバショ）","address":"金沢市八日市出町718","lat":"36.552713","lon":"136.608346","url":"","tel":""},{"id":224,"name":"古府町第１児童公園（指定避難場所）","name_kana":"コフマチダイ１ジドウコウエン（シテイヒナンバショ）","address":"金沢市古府町南851","lat":"36.559681","lon":"136.610624","url":"","tel":""},{"id":225,"name":"西金児童公園（指定避難場所）","name_kana":"ニシカネジドウコウエン（シテイヒナンバショ）","address":"金沢市西金沢新町256","lat":"36.554159","lon":"136.615462","url":"","tel":""},{"id":226,"name":"チカモリ遺跡公園（指定避難場所）","name_kana":"チカモリイセキコウエン（シテイヒナンバショ）","address":"金沢市新保本5-47","lat":"36.556111","lon":"136.604723","url":"","tel":""},{"id":227,"name":"西部中央公園（指定避難場所）","name_kana":"セイブチュウオウコウエン（シテイヒナンバショ）","address":"金沢市西金沢5-286","lat":"36.557154","lon":"136.615849","url":"","tel":""},{"id":228,"name":"新保本町中央公園（指定避難場所）","name_kana":"シンボホンマチチュウオウコウエン（シテイヒナンバショ）","address":"金沢市新保本2-502","lat":"36.552017","lon":"136.602086","url":"","tel":""},{"id":229,"name":"新保本町ふれあい公園（指定避難場所）","name_kana":"シンボホンマチフレアイコウエン（シテイヒナンバショ）","address":"金沢市新保本4-70","lat":"36.558841","lon":"136.602695","url":"","tel":""},{"id":230,"name":"西金沢テニスコート（指定避難場所）","name_kana":"ニシカナザワテニスコート（シテイヒナンバショ）","address":"金沢市西金沢3-684","lat":"36.554588","lon":"136.611535","url":"","tel":"076-240-3848"},{"id":231,"name":"西南部公民館（指定避難場所）","name_kana":"セイナンブコウミンカン（シテイヒナンバショ）","address":"金沢市西金沢3-684","lat":"36.554788","lon":"136.612195","url":"","tel":"076-240-8860"},{"id":232,"name":"西南部中学校（指定避難場所）","name_kana":"セイナンブチュウガッコウ（シテイヒナンバショ）","address":"金沢市新保本1-149","lat":"36.552698","lon":"136.606171","url":"","tel":"076-249-2317"},{"id":233,"name":"西南部小学校（指定避難場所）","name_kana":"セイナンブショウガッコウ（シテイヒナンバショ）","address":"金沢市八日市出町304","lat":"36.555473","lon":"136.60836","url":"","tel":"076-240-2501"},{"id":234,"name":"八日市住吉中央公園（指定避難場所）","name_kana":"ヨウカイチスミヨシチュウオウコウエン（シテイヒナンバショ）","address":"金沢市八日市2-608","lat":"36.543631","lon":"136.608419","url":"","tel":""},{"id":235,"name":"八日市ケヤキ児童公園（指定避難場所）","name_kana":"ヨウカイチケヤキジドウコウエン（シテイヒナンバショ）","address":"金沢市八日市5-455","lat":"36.550541","lon":"136.60987","url":"","tel":""},{"id":236,"name":"八日市ｱﾒﾘｶﾌｳ児童公園（指定避難場所）","name_kana":"ヨウカイチアメリカフウジドウコウエン（シテイヒナンバショ）","address":"金沢市八日市5-296","lat":"36.547876","lon":"136.609752","url":"","tel":""},{"id":237,"name":"押野松の木公園（指定避難場所）","name_kana":"オシノマツノキコウエン（シテイヒナンバショ）","address":"金沢市押野3-525","lat":"36.547983","lon":"136.61366","url":"","tel":""},{"id":238,"name":"押野公民館（指定避難場所）","name_kana":"オシノコウミンカン（シテイヒナンバショ）","address":"金沢市八日市2-464","lat":"36.546083","lon":"136.608585","url":"","tel":"076-247-0856"},{"id":239,"name":"押野小学校（指定避難場所）","name_kana":"オシノショウガッコウ（シテイヒナンバショ）","address":"金沢市八日市1-176","lat":"36.54588","lon":"136.609368","url":"","tel":"076-241-4197"},{"id":240,"name":"糸田第２児童公園（指定避難場所）","name_kana":"イトダダイ２ジドウコウエン（シテイヒナンバショ）","address":"金沢市糸田2-207","lat":"36.559343","lon":"136.622946","url":"","tel":""},{"id":241,"name":"入江第１児童公園（指定避難場所）","name_kana":"イリエダイ１ジドウコウエン（シテイヒナンバショ）","address":"金沢市入江2-250","lat":"36.566323","lon":"136.626834","url":"","tel":""},{"id":242,"name":"神田交通公園（指定避難場所）","name_kana":"カンダコウツウコウエン（シテイヒナンバショ）","address":"金沢市新神田3-113","lat":"36.561484","lon":"136.630172","url":"","tel":""},{"id":243,"name":"新神田公民館（指定避難場所）","name_kana":"シンカンダコウミンカン（シテイヒナンバショ）","address":"金沢市新神田1-1-18","lat":"36.563997","lon":"136.635623","url":"","tel":"076-291-0025"},{"id":244,"name":"高岡中学校（指定避難場所）","name_kana":"タカオカチュウガッコウ（シテイヒナンバショ）","address":"金沢市新神田1-10-1","lat":"36.565461","lon":"136.636217","url":"","tel":"076-291-3177"},{"id":245,"name":"新神田小学校（指定避難場所）","name_kana":"シンカンダショウガッコウ（シテイヒナンバショ）","address":"金沢市新神田1-10-58","lat":"36.564987","lon":"136.63471","url":"","tel":"076-291-3821"},{"id":246,"name":"保古東公園（指定避難場所）","name_kana":"ホコヒガシコウエン（シテイヒナンバショ）","address":"金沢市保古1-120","lat":"36.55811","lon":"136.62132","url":"","tel":""},{"id":247,"name":"高畠第２児童公園（指定避難場所）","name_kana":"タカバタケダイ２ジドウコウエン（シテイヒナンバショ）","address":"金沢市高畠1-262","lat":"36.57085729","lon":"136.6129759","url":"","tel":""},{"id":248,"name":"米丸中央公園（指定避難場所）","name_kana":"ヨネマルチュウオウコウエン（シテイヒナンバショ）","address":"金沢市高畠1-382","lat":"36.570252","lon":"136.616503","url":"","tel":""},{"id":249,"name":"伏見川スポーツ公園（指定避難場所）","name_kana":"フシミガワスポーツコウエン（シテイヒナンバショ）","address":"金沢市東力町ハ273","lat":"36.56301798","lon":"136.6176027","url":"","tel":""},{"id":250,"name":"黒田児童公園（指定避難場所）","name_kana":"クロダジドウコウエン（シテイヒナンバショ）","address":"金沢市黒田1-9","lat":"36.561333","lon":"136.615623","url":"","tel":""},{"id":251,"name":"玉鉾公園（指定避難場所）","name_kana":"タマホココウエン（シテイヒナンバショ）","address":"金沢市玉鉾2-361","lat":"36.573664","lon":"136.622586","url":"","tel":""},{"id":252,"name":"あすなろの森（指定避難場所）","name_kana":"アスナロノモリ（シテイヒナンバショ）","address":"金沢市東力4-90","lat":"36.563014","lon":"136.624088","url":"","tel":""},{"id":253,"name":"西部市民体育会館（指定避難場所）","name_kana":"セイブシミンタイイクカイカン（シテイヒナンバショ）","address":"金沢市東力町ハ250","lat":"36.563048","lon":"136.619856","url":"","tel":"076-291-6450"},{"id":254,"name":"西部市民憩いの家（指定避難場所）","name_kana":"セイブシミンイコイノイエ（シテイヒナンバショ）","address":"金沢市東力町ハ256","lat":"36.563213","lon":"136.619252","url":"","tel":"076-291-4520"},{"id":255,"name":"米丸公民館（指定避難場所）","name_kana":"ヨネマルコウミンカン（シテイヒナンバショ）","address":"金沢市間明町2-72","lat":"36.565134","lon":"136.618279","url":"","tel":"076-291-1171"},{"id":256,"name":"米丸小学校（指定避難場所）","name_kana":"ヨネマルショウガッコウ（シテイヒナンバショ）","address":"金沢市東力町ニ155","lat":"36.565681","lon":"136.620049","url":"","tel":"076-291-1361"},{"id":257,"name":"こなん水辺公園（指定避難場所）","name_kana":"コナンミズベコウエン（シテイヒナンバショ）","address":"金沢市東蚊爪町マ33-1","lat":"36.632198","lon":"136.664193","url":"","tel":""},{"id":258,"name":"瑞樹西公園（指定避難場所）","name_kana":"ミズキニシコウエン（シテイヒナンバショ）","address":"金沢市みずき4-247","lat":"36.623032","lon":"136.666628","url":"","tel":""},{"id":259,"name":"湊２丁目水鳥公園（指定避難場所）","name_kana":"ミナト２チョウメミズトリコウエン（シテイヒナンバショ）","address":"金沢市湊2-90-1","lat":"36.635827","lon":"136.648024","url":"","tel":""},{"id":260,"name":"みなと新婚の森（指定避難場所）","name_kana":"ミナトシンコンノモリ（シテイヒナンバショ）","address":"金沢市湊2-123","lat":"36.634949","lon":"136.648888","url":"","tel":""},{"id":261,"name":"瑞樹中央公園（指定避難場所）","name_kana":"ミズキチュウオウコウエン（シテイヒナンバショ）","address":"金沢市みずき2-262","lat":"36.621887","lon":"136.671944","url":"","tel":""},{"id":262,"name":"湊１丁目公園（指定避難場所）","name_kana":"ミナト１チョウメコウエン（シテイヒナンバショ）","address":"金沢市湊1-118-1","lat":"36.640037","lon":"136.657535","url":"","tel":""},{"id":263,"name":"木越運動公園（指定避難場所）","name_kana":"キゴシウンドウコウエン（シテイヒナンバショ）","address":"金沢市木越3-99","lat":"36.617921","lon":"136.666611","url":"","tel":""},{"id":264,"name":"木越中央公園（指定避難場所）","name_kana":"キゴシチュウオウコウエン（シテイヒナンバショ）","address":"金沢市木越2-1","lat":"36.619489","lon":"136.667355","url":"","tel":""},{"id":265,"name":"大浦公民館（指定避難場所）","name_kana":"オオウラコウミンカン（シテイヒナンバショ）","address":"金沢市大浦町ヌ93-1","lat":"36.624427","lon":"136.653112","url":"","tel":"076-238-5271"},{"id":266,"name":"大浦小学校（指定避難場所）","name_kana":"オオウラショウガッコウ（シテイヒナンバショ）","address":"金沢市大浦町ヌ87","lat":"36.623286","lon":"136.653281","url":"","tel":"076-238-2025"},{"id":267,"name":"松寺中央公園（指定避難場所）","name_kana":"マツデラチュウオウコウエン（シテイヒナンバショ）","address":"金沢市松寺町子83-1","lat":"36.602243","lon":"136.651887","url":"","tel":""},{"id":268,"name":"城北市民運動公園（指定避難場所）","name_kana":"ジョウホクシミンウンドウコウエン（シテイヒナンバショ）","address":"金沢市磯部町ニ25-1","lat":"36.598406","lon":"136.657434","url":"","tel":""},{"id":269,"name":"城北市民テニスコート（指定避難場所）","name_kana":"ジョウホクシミンテニスコート（シテイヒナンバショ）","address":"金沢市松寺町酉90-1","lat":"36.60149","lon":"136.655867","url":"","tel":"076-237-6028"},{"id":270,"name":"松寺公民館（指定避難場所）","name_kana":"マツデラコウミンカン（シテイヒナンバショ）","address":"金沢市松寺町丑42","lat":"36.603901","lon":"136.651956","url":"","tel":"076-238-1020"},{"id":271,"name":"木谷公園（指定避難場所）","name_kana":"キヤコウエン（シテイヒナンバショ）","address":"金沢市粟崎町リ1-1","lat":"36.625318","lon":"136.631287","url":"","tel":""},{"id":478,"name":"戸板公園（指定避難場所）","name_kana":"トイタコウエン（シテイヒナンバショ）","address":"金沢市戸板5-87","lat":"36.581582","lon":"136.622573","url":"","tel":""},{"id":272,"name":"粟崎町４丁目児童公園（指定避難場所）","name_kana":"アワガサキマチ４チョウメジドウコウエン（シテイヒナンバショ）","address":"金沢市粟崎町4-6","lat":"36.633997","lon":"136.621674","url":"","tel":""},{"id":273,"name":"粟崎第１公園（指定避難場所）","name_kana":"アワガサキダイ１コウエン（シテイヒナンバショ）","address":"金沢市粟崎町3-242","lat":"36.626812","lon":"136.62147","url":"","tel":""},{"id":274,"name":"粟崎中央公園（指定避難場所）","name_kana":"アワガサキチュウオウコウエン（シテイヒナンバショ）","address":"金沢市粟崎町2-247","lat":"36.627968","lon":"136.626062","url":"","tel":""},{"id":275,"name":"粟崎公民館（指定避難場所）","name_kana":"アワガサキコウミンカン（シテイヒナンバショ）","address":"金沢市粟崎町1-3","lat":"36.625676","lon":"136.627924","url":"","tel":"076-238-2632"},{"id":276,"name":"粟崎小学校（指定避難場所）","name_kana":"アワガサキショウガッコウ（シテイヒナンバショ）","address":"金沢市粟崎町ヘ78","lat":"36.621142","lon":"136.624743","url":"","tel":"076-238-2234"},{"id":277,"name":"ものづくり会館（指定避難場所）","name_kana":"モノヅクリカイカン（シテイヒナンバショ）","address":"金沢市粟崎町4-80-1","lat":"36.628487","lon":"136.620258","url":"","tel":"076-255-1518"},{"id":278,"name":"湊３丁目公園（指定避難場所）","name_kana":"ミナト３チョウメコウエン（シテイヒナンバショ）","address":"金沢市湊3-19-1","lat":"36.625082","lon":"136.635885","url":"","tel":""},{"id":279,"name":"大友なぎさ公園（指定避難場所）","name_kana":"オオトモナギサコウエン（シテイヒナンバショ）","address":"金沢市大友1-148","lat":"36.599801","lon":"136.626674","url":"","tel":""},{"id":280,"name":"鞍月磯のひろば公園（指定避難場所）","name_kana":"クラツキイソノヒロバコウエン（シテイヒナンバショ）","address":"金沢市鞍月4-53","lat":"36.59729","lon":"136.621849","url":"","tel":""},{"id":281,"name":"鞍月広場（指定避難場所）","name_kana":"クラツキヒロバ（シテイヒナンバショ）","address":"金沢市鞍月4-21","lat":"36.599216","lon":"136.620719","url":"","tel":""},{"id":479,"name":"犀川公民館（指定避難場所）","name_kana":"サイガワコウミンカン（シテイヒナンバショ）","address":"金沢市末町6-67-1","lat":"36.516912","lon":"136.688079","url":"","tel":"076-229-0949"},{"id":480,"name":"米丸交流広場（指定避難場所）","name_kana":"ヨネマルコウリュウヒロバ（シテイヒナンバショ）","address":"金沢市東力町ハ284","lat":"36.561509","lon":"136.617891","url":"","tel":""},{"id":481,"name":"近江町いちば館（指定避難場所）","name_kana":"オウミチョウイチバカン（シテイヒナンバショ）","address":"金沢市青草町88","lat":"36.571488","lon":"136.655875","url":"","tel":"076-260-6722"},{"id":482,"name":"国際高等専門学校（指定避難場所）","name_kana":"コクサイコウトウセンモンガッコウ（シテイヒナンバショ）","address":"金沢市久安2-270","lat":"36.532653","lon":"136.629426","url":"","tel":"076-248-1080"},{"id":483,"name":"河原市町みずほ中央公園（指定避難場所）","name_kana":"カワライチマチミズホチュウオウコウエン（シテイヒナンバショ）","address":"金沢市河原市町30","lat":"36.603673","lon":"136.710466","url":"","tel":""},{"id":484,"name":"大桑防災拠点広場（指定避難場所）","name_kana":"オオクワボウサイキョテンヒロバ（シテイヒナンバショ）","address":"金沢市大桑3-80","lat":"36.536539","lon":"136.676748","url":"","tel":"076-220-2366"},{"id":485,"name":"野田東公園（指定避難場所）","name_kana":"ノダヒガシコウエン（シテイヒナンバショ）","address":"金沢市野田2-120","lat":"36.535838","lon":"136.669383","url":"","tel":""},{"id":486,"name":"野田西公園（指定避難場所）","name_kana":"ノダニシコウエン（シテイヒナンバショ）","address":"金沢市野田4-173","lat":"36.533942","lon":"136.66309","url":"","tel":""},{"id":487,"name":"太陽が丘しいの木公園（指定避難場所）","name_kana":"タイヨウガオカシイノキコウエン（シテイヒナンバショ）","address":"金沢市太陽ヶ丘土地区画整理事業地内7工区","lat":"36.534536","lon":"136.707642","url":"","tel":""},{"id":488,"name":"東金沢駅前かがやき公園（指定避難場所）","name_kana":"ヒガシカナザワエキマエカガヤキコウエン（シテイヒナンバショ）","address":"金沢市三池町197-53","lat":"36.592958","lon":"136.670627","url":"","tel":""},{"id":489,"name":"野田南広場（指定避難場所）","name_kana":"ノダミナミヒロバ（シテイヒナンバショ）","address":"金沢市野田1-45","lat":"36.53182","lon":"136.672687","url":"","tel":""},{"id":490,"name":"野田中央公園（指定避難場所）","name_kana":"ノダチュウオウコウエン（シテイヒナンバショ）","address":"金沢市野田1-176","lat":"36.532722","lon":"136.669938","url":"","tel":""},{"id":491,"name":"大河端西鷹狩り公園（指定避難場所）","name_kana":"オコバタニシタカガリコウエン（シテイヒナンバショ）","address":"金沢市大河端西1-57","lat":"36.616044","lon":"136.639819","url":"","tel":""},{"id":492,"name":"金沢大学人間社会学域学校教育学類附属特別支援学校（指定避難場所）","name_kana":"カナザワダイガクニンゲンシャカイガクイキガッコウキョウイクガクルイフゾクトクベツシエンガッコウ（シテイヒナンバショ）","address":"金沢市東兼六町2-10","lat":"36.562778","lon":"136.666093","url":"","tel":"076-263-5551"},{"id":493,"name":"旧野町小学校（指定避難場所）","name_kana":"キュウノマチショウガッコウ（シテイヒナンバショ）","address":"金沢市野町3-11-1","lat":"36.552767","lon":"136.648021","url":"","tel":""},{"id":494,"name":"犀川緑地（指定避難場所）","name_kana":"サイガワリョクチ（シテイヒナンバショ）","address":"金沢市涌波～普正寺町","lat":"36.538989","lon":"136.675823","url":"","tel":""},{"id":495,"name":"金沢プール（指定避難場所）","name_kana":"カナザワプール（シテイヒナンバショ）","address":"金沢市磯部町ハ55","lat":"36.59708376","lon":"136.6598958","url":"","tel":"076-251-3535"},{"id":496,"name":"東浅川公民館（指定避難場所）","name_kana":"ヒガシアサカワコウミンカン（シテイヒナンバショ）","address":"金沢市上中町ニ14","lat":"36.52042747","lon":"136.7054694","url":"","tel":"076-229-0936"},{"id":497,"name":"金沢市文化ホール","name_kana":"カナザワシブンカホール","address":"金沢市高岡町15-1","lat":"36.56644764","lon":"136.6527718","url":"","tel":"076-223-1221"},{"id":498,"name":"西部緑道（指定避難場所）","name_kana":"セイブリョクドウ（シテイヒナンバショ）","address":"金沢市鞍月3-70他","lat":"36.598817","lon":"136.617419","url":"","tel":""},{"id":499,"name":"中央公民館彦三館（指定避難場所）","name_kana":"チュウオウコウミンカンビコミカン（シテイヒナンバショ）","address":"金沢市彦三町1-15-5","lat":"36.574751","lon":"136.659565","url":"","tel":"076-261-8100"},{"id":500,"name":"城北児童会館（指定避難場所）","name_kana":"ジョウホクジドウカイカン（シテイヒナンバショ）","address":"金沢市小坂町西8-11","lat":"36.589636","lon":"136.671885","url":"","tel":"076-251-0444"},{"id":501,"name":"四十万公民館（指定避難場所）","name_kana":"シジマコウミンカン（シテイヒナンバショ）","address":"金沢市四十万3-90","lat":"36.503735","lon":"136.618804","url":"","tel":"076-298-1234"},{"id":502,"name":"湖南学院（指定避難場所）","name_kana":"コナンガクイン（シテイヒナンバショ）","address":"金沢市上中町ロ11-1","lat":"36.517353","lon":"136.703195","url":"","tel":"076-229-1077"},{"id":503,"name":"旧材木町小学校体育館（指定避難場所）","name_kana":"キュウザイモクチョウショウガッコウタイイクカン（シテイヒナンバショ）","address":"金沢市材木町13-12","lat":"36.566741","lon":"136.668076","url":"","tel":""},{"id":504,"name":"犀桜小学校（指定避難場所）","name_kana":"サイオウショウガッコウ（シテイヒナンバショ）","address":"金沢市菊川1-2-15","lat":"36.55","lon":"136.661688","url":"","tel":"076-262-2355"},{"id":505,"name":"朝霧台小学校（指定避難場所）","name_kana":"アサギリダイショウガッコウ（シテイヒナンバショ）","address":"金沢市田上本町4-28","lat":"36.537275","lon":"136.693730","url":"","tel":"076-255-6478"},{"id":506,"name":"長町中学校（指定避難場所）","name_kana":"ナガマチチュウガッコウ（シテイヒナンバショ）","address":"金沢市長町1-10-35","lat":"36.567127","lon":"136.650409","url":"","tel":"076-262-6272"}]
